[
  {
    "id": 1,
    "local": "CAS Norte - Policlínia Regional Norte",
    "endereco": "R. Pinto Alves, 3755 - Vila Maria, Lagoa Santa - MG, 33400-000",
    "disciplina": "APS I",
    "preceptor": "CLARISSA DE SOUZA CAFÉ",
    "estudante": 6,
    "periodo_original": "PRIMEIRO",
    "turma": "FAMED XXVII",
    "categoria": "Enfermeiro ",
    "turno": "MANHÃ",
    "latitude": -19.59565,
    "longitude": -43.90824
  },
  {
    "id": 2,
    "local": "UBS Novo Alvorada",
    "endereco": "Av. Aparecida do Norte, 25 - Carvalho de Brito, Sabará - MG, 34650-200",
    "disciplina": "APS I",
    "preceptor": "ÉRICA MOREIRA DE SOUZA",
    "estudante": 6,
    "periodo_original": "PRIMEIRO",
    "turma": "FAMED XXVII",
    "categoria": "Enfermeiro ",
    "turno": "MANHÃ",
    "latitude": -19.86977,
    "longitude": -43.89453
  },
  {
    "id": 3,
    "local": "UBS Nova Vista",
    "endereco": "R. Alzira, 242 - Carvalho de Brito, Sabará - MG, 34710-530",
    "disciplina": "APS I",
    "preceptor": "JESSICA SILVA JANUÁRIO",
    "estudante": 6,
    "periodo_original": "PRIMEIRO",
    "turma": "FAMED XXVII",
    "categoria": "Enfermeiro ",
    "turno": "TARDE",
    "latitude": -19.88232,
    "longitude": -43.89812
  },
  {
    "id": 4,
    "local": "UBS Siderúrgica",
    "endereco": "Praça Dr. Louis Ensch - Centro, Sabará - MG, 34505-740",
    "disciplina": "APS I",
    "preceptor": "LUIZA HAMACEK DIAS PASSOS DE MATOS",
    "estudante": 6,
    "periodo_original": "PRIMEIRO",
    "turma": "FAMED XXVII",
    "categoria": "Enfermeiro ",
    "turno": "TARDE",
    "latitude": -19.88454,
    "longitude": -43.79839
  },
  {
    "id": 5,
    "local": "UBS Novo Alvorada",
    "endereco": "Av. Aparecida do Norte, 25 - Carvalho de Brito, Sabará - MG, 34650-200",
    "disciplina": "APS I",
    "preceptor": "ÉRICA MOREIRA DE SOUZA",
    "estudante": 7,
    "periodo_original": "PRIMEIRO",
    "turma": "FAMED XXVII",
    "categoria": "Enfermeiro ",
    "turno": "TARDE",
    "latitude": -19.86985,
    "longitude": -43.89453
  },
  {
    "id": 6,
    "local": "UBS Novo Alvorada",
    "endereco": "Av. Aparecida do Norte, 25 - Carvalho de Brito, Sabará - MG, 34650-200",
    "disciplina": "APS I",
    "preceptor": "ÉRICA MOREIRA DE SOUZA",
    "estudante": 6,
    "periodo_original": "PRIMEIRO",
    "turma": "FAMED XXVII",
    "categoria": "Enfermeiro ",
    "turno": "TARDE",
    "latitude": -19.86977,
    "longitude": -43.89452
  },
  {
    "id": 7,
    "local": "UBS Nova Vista",
    "endereco": "R. Alzira, 242 - Carvalho de Brito, Sabará - MG, 34710-530",
    "disciplina": "APS I",
    "preceptor": "JESSICA SILVA JANUÁRIO",
    "estudante": 6,
    "periodo_original": "PRIMEIRO",
    "turma": "FAMED XXVII",
    "categoria": "Enfermeiro ",
    "turno": "TARDE",
    "latitude": -19.88226,
    "longitude": -43.89811
  },
  {
    "id": 8,
    "local": "UBS Siderúrgica",
    "endereco": "Praça Dr. Louis Ensch - Centro, Sabará - MG, 34505-740",
    "disciplina": "APS I",
    "preceptor": "LUIZA HAMACEK DIAS PASSOS DE MATOS",
    "estudante": 6,
    "periodo_original": "PRIMEIRO",
    "turma": "FAMED XXVII",
    "categoria": "Enfermeiro ",
    "turno": "TARDE",
    "latitude": -19.88452,
    "longitude": -43.79828
  },
  {
    "id": 9,
    "local": "UBS Novo Alvorada",
    "endereco": "Av. Aparecida do Norte, 25 - Carvalho de Brito, Sabará - MG, 34650-200",
    "disciplina": "APS II",
    "preceptor": "ÉRICA MOREIRA DE SOUZA",
    "estudante": 6,
    "periodo_original": "SEGUNDO",
    "turma": "FAMED XXVI",
    "categoria": "Enfermeiro ",
    "turno": "TARDE",
    "latitude": -19.86982,
    "longitude": -43.89449
  },
  {
    "id": 10,
    "local": "UBS Bom Jesus",
    "endereco": "R. Francisco Gerônimo da Silva, 25 - Bom Jesus, Santa Luzia - MG, 33015-410",
    "disciplina": "APS II",
    "preceptor": "ELISA NEIDE BARBOSA DE SOUZA",
    "estudante": 7,
    "periodo_original": "SEGUNDO",
    "turma": "FAMED XXVI",
    "categoria": "Enfermeiro ",
    "turno": "TARDE",
    "latitude": -19.75626,
    "longitude": -43.84725
  },
  {
    "id": 11,
    "local": "UBS Vale das Acácias",
    "endereco": "Av. das Acácias, 570 - Vale das Acácias, Santa Luzia - MG, 33084-000",
    "disciplina": "APS II",
    "preceptor": "LIVIA DE SOUZA RODRIGUES ALMEIDA",
    "estudante": 6,
    "periodo_original": "SEGUNDO",
    "turma": "FAMED XXVI",
    "categoria": "Enfermeiro ",
    "turno": "TARDE",
    "latitude": -19.79757,
    "longitude": -43.89035
  },
  {
    "id": 12,
    "local": "UBS Cuidar Várzea",
    "endereco": "Praça das Estrelas 45, bairro Solarium, Lagoa Santa - MG",
    "disciplina": "APS II",
    "preceptor": "JESSICA ALVES CONRADO",
    "estudante": 6,
    "periodo_original": "SEGUNDO",
    "turma": "FAMED XXVI",
    "categoria": "Enfermeiro ",
    "turno": "TARDE",
    "latitude": -19.63074,
    "longitude": -43.88326
  },
  {
    "id": 13,
    "local": "CAS Norte - Policlínia Regional Norte",
    "endereco": "R. Pinto Alves, 3755 - Vila Maria, Lagoa Santa - MG, 33400-000",
    "disciplina": "APS II",
    "preceptor": "CLARISSA DE SOUZA CAFÉ",
    "estudante": 6,
    "periodo_original": "SEGUNDO",
    "turma": "FAMED XXVI",
    "categoria": "Enfermeiro ",
    "turno": "MANHÃ",
    "latitude": -19.59571,
    "longitude": -43.90828
  },
  {
    "id": 14,
    "local": "USF Centro",
    "endereco": "R. Mal. Deodoro da Fonseca, 410 - Centro - Lagoa Santa- MG",
    "disciplina": "APS II",
    "preceptor": "GABRIELE CAROLINA SOARES",
    "estudante": 6,
    "periodo_original": "SEGUNDO",
    "turma": "FAMED XXVI",
    "categoria": "Enfermeiro ",
    "turno": "MANHÃ",
    "latitude": -19.63024,
    "longitude": -43.89551
  },
  {
    "id": 15,
    "local": "UBS Cuidar Promissão",
    "endereco": "Al. Noruega 165, Vila Pinto Coelho - Lagoa Santa",
    "disciplina": "APS II",
    "preceptor": "PAOLA DANIELLE SILVA DE JESUS",
    "estudante": 6,
    "periodo_original": "SEGUNDO",
    "turma": "FAMED XXVI",
    "categoria": "Enfermeiro ",
    "turno": "MANHÃ",
    "latitude": -19.62773,
    "longitude": -43.90181
  },
  {
    "id": 16,
    "local": "UBS Santa Rita",
    "endereco": "Av. Belo Horizonte 185, Padre Miguel - Santa Luzia",
    "disciplina": "APS II",
    "preceptor": "JOSIANE DA SILVA SANTOS",
    "estudante": 8,
    "periodo_original": "SEGUNDO",
    "turma": "FAMED XXVI",
    "categoria": "Enfermeiro ",
    "turno": "MANHÃ",
    "latitude": -19.80917,
    "longitude": -43.89218
  },
  {
    "id": 17,
    "local": "UBS Siderúrgica",
    "endereco": "Praça Dr. Louis Ensch - Centro, Sabará - MG, 34505-740",
    "disciplina": "APS III",
    "preceptor": "LUIZA HAMACEK DIAS PASSOS DE MATOS",
    "estudante": 7,
    "periodo_original": "TERCEIRO",
    "turma": "FAMED XXV",
    "categoria": "Enfermeiro ",
    "turno": "TARDE",
    "latitude": -19.88457,
    "longitude": -43.79836
  },
  {
    "id": 18,
    "local": "UBS Novo Alvorada",
    "endereco": "Av. Aparecida do Norte, 25 - Carvalho de Brito, Sabará - MG, 34650-200",
    "disciplina": "APS III",
    "preceptor": "ÉRICA MOREIRA DE SOUZA",
    "estudante": 7,
    "periodo_original": "TERCEIRO",
    "turma": "FAMED XXV",
    "categoria": "Enfermeiro ",
    "turno": "TARDE",
    "latitude": -19.86982,
    "longitude": -43.89446
  },
  {
    "id": 19,
    "local": "UBS Vale das Acácias",
    "endereco": "Av. das Acácias, 570 - Vale das Acácias, Santa Luzia - MG, 33084-000",
    "disciplina": "APS III",
    "preceptor": "LIVIA DE SOUZA RODRIGUES ALMEIDA",
    "estudante": 6,
    "periodo_original": "TERCEIRO",
    "turma": "FAMED XXV",
    "categoria": "Enfermeiro ",
    "turno": "TARDE",
    "latitude": -19.79754,
    "longitude": -43.89023
  },
  {
    "id": 20,
    "local": "UBS Cuidar Promissão",
    "endereco": "Al. Noruega 165, Vila Pinto Coelho - Lagoa Santa",
    "disciplina": "APS III",
    "preceptor": "PAOLA DANIELLE SILVA DE JESUS",
    "estudante": 7,
    "periodo_original": "TERCEIRO",
    "turma": "FAMED XXV",
    "categoria": "Enfermeiro ",
    "turno": "TARDE",
    "latitude": -19.62753,
    "longitude": -43.90174
  },
  {
    "id": 21,
    "local": "UBS Catumbi",
    "endereco": "R. São Judas Tadeu 795, São Benedito, Santa Luzia - MG CEP 33125-270",
    "disciplina": "APS III",
    "preceptor": "NAYARA DUTRA DE MORAES",
    "estudante": 7,
    "periodo_original": "TERCEIRO",
    "turma": "FAMED XXV",
    "categoria": "Enfermeiro ",
    "turno": "TARDE",
    "latitude": -19.78835,
    "longitude": -43.94004
  },
  {
    "id": 22,
    "local": "USF Centro",
    "endereco": "R. Mal. Deodoro da Fonseca, 410 - Centro - Lagoa Santa- MG",
    "disciplina": "APS III",
    "preceptor": "GABRIELE CAROLINA SOARES",
    "estudante": 6,
    "periodo_original": "TERCEIRO",
    "turma": "FAMED XXV",
    "categoria": "Enfermeiro ",
    "turno": "TARDE",
    "latitude": -19.63023,
    "longitude": -43.89565
  },
  {
    "id": 23,
    "local": "Centro de Saúde Serra Verde",
    "endereco": "Rua Guido Leão, Praça Fabrício Soares da Silva, 10 - Serra Verde, Belo Horizonte - MG, 31630-572",
    "disciplina": "AS IV",
    "preceptor": "NIVALDO PIRES BICALHO",
    "estudante": 6,
    "periodo_original": "QUARTO",
    "turma": "FAMED XXIV",
    "categoria": "Médico Generalista / MFC",
    "turno": "MANHÃ",
    "latitude": -19.79525,
    "longitude": -43.95368
  },
  {
    "id": 24,
    "local": "UBS Cuidar Moradas da Lapinha I",
    "endereco": "R. Cio da terra, 380, Moradas da Lapinha, Lagoa Santa",
    "disciplina": "AS IV",
    "preceptor": "BERNARDO RIBEIRO RAMOS GOMES",
    "estudante": 6,
    "periodo_original": "QUARTO",
    "turma": "FAMED XXIV",
    "categoria": "Médico Generalista / MFC",
    "turno": "MANHÃ",
    "latitude": -19.59588,
    "longitude": -43.90841
  },
  {
    "id": 25,
    "local": "UBS Cuidar Joana D´Arc",
    "endereco": "R. Cmte. Vítor, 100 - Bela Vista, Lagoa Santa - MG, 33400-000",
    "disciplina": "AS IV",
    "preceptor": "GLICILLA PALOMA DA SILVA",
    "estudante": 5,
    "periodo_original": "QUARTO",
    "turma": "FAMED XXIV",
    "categoria": "Médico Generalista / MFC",
    "turno": "MANHÃ",
    "latitude": -19.64398,
    "longitude": -43.90223
  },
  {
    "id": 26,
    "local": "UBS Célvia I",
    "endereco": "Rua Paraná 231, Célvia, Vespasiano",
    "disciplina": "AS IV",
    "preceptor": "RENATA BARRETO FRANCISCO",
    "estudante": 6,
    "periodo_original": "QUARTO",
    "turma": "FAMED XXIV",
    "categoria": "Médico Generalista / MFC",
    "turno": "MANHÃ",
    "latitude": -19.69054,
    "longitude": -43.93526
  },
  {
    "id": 27,
    "local": "UBS Cuidar Promissão",
    "endereco": "Al. Noruega 165, Vila Pinto Coelho - Lagoa Santa",
    "disciplina": "AS IV",
    "preceptor": "SARA GABRIELE VIEIRA",
    "estudante": 5,
    "periodo_original": "QUARTO",
    "turma": "FAMED XXIV",
    "categoria": "Médico Generalista / MFC",
    "turno": "MANHÃ",
    "latitude": -19.62766,
    "longitude": -43.90173
  },
  {
    "id": 28,
    "local": "UBS Cuidar Moradas da Lapinha I",
    "endereco": "R. Cio da terra, 380, Moradas da Lapinha, Lagoa Santa",
    "disciplina": "AS IV",
    "preceptor": "BERNARDO RIBEIRO RAMOS GOMES",
    "estudante": 6,
    "periodo_original": "QUARTO",
    "turma": "FAMED XXIV",
    "categoria": "Médico Generalista / MFC",
    "turno": "MANHÃ",
    "latitude": -19.59576,
    "longitude": -43.90831
  },
  {
    "id": 29,
    "local": "PSF Cuidar Pôr do Sol",
    "endereco": "Rua Paula Pinto, 298 –Por do sol - Lagoa Santa-MG",
    "disciplina": "AS IV",
    "preceptor": "THALITA SIBELI SOUZA SILVA",
    "estudante": 6,
    "periodo_original": "QUARTO",
    "turma": "FAMED XXIV",
    "categoria": "Médico Generalista / MFC",
    "turno": "MANHÃ",
    "latitude": -19.60791,
    "longitude": -43.90908
  },
  {
    "id": 30,
    "local": "UBS Caieiras",
    "endereco": "R. Dona Mariana da Costa 959, Caieiras, Vespasiano",
    "disciplina": "AS IV",
    "preceptor": "KELLY JACKELINE NUNES MATOS",
    "estudante": 6,
    "periodo_original": "QUARTO",
    "turma": "FAMED XXIV",
    "categoria": "Médico Generalista / MFC",
    "turno": "MANHÃ",
    "latitude": -19.68637,
    "longitude": -43.91391
  },
  {
    "id": 31,
    "local": "ESF Gameleira",
    "endereco": "R. Gameleira 399, Confins - MG, 33500-000",
    "disciplina": "AS IV",
    "preceptor": "DANILO GUSTAVO GONÇALVES FERREIRA ROMANELLI",
    "estudante": 5,
    "periodo_original": "QUARTO",
    "turma": "FAMED XXIV",
    "categoria": "Médico Generalista / MFC",
    "turno": "MANHÃ",
    "latitude": -19.62818,
    "longitude": -43.98403
  },
  {
    "id": 32,
    "local": "UBS Cuidar Sobradinho",
    "endereco": "R. Aleomar Baleeiro 316, Bairro Miguel A Salomão, Lagoa Santa, MG CEP 33400-000",
    "disciplina": "AS IV",
    "preceptor": "LAURA LOSCHI DE OLIVEIRA CLARIM",
    "estudante": 5,
    "periodo_original": "QUARTO",
    "turma": "FAMED XXIV",
    "categoria": "Médico Generalista / MFC",
    "turno": "MANHÃ",
    "latitude": -19.62456,
    "longitude": -43.89168
  },
  {
    "id": 33,
    "local": "UBS Moradas da Serra",
    "endereco": "Av. Minas Gerais 715, Morada da Serra, Ibirité - MG, CEP 32400-000",
    "disciplina": "AS IV",
    "preceptor": "JEANNE APARECIDA MALAQUIAS",
    "estudante": 5,
    "periodo_original": "QUARTO",
    "turma": "FAMED XXIV",
    "categoria": "Médico Generalista / MFC",
    "turno": "TARDE",
    "latitude": -20.02412,
    "longitude": -44.04103
  },
  {
    "id": 34,
    "local": "UBS Nova Pampulha (Policlínica Niova Pampulha)",
    "endereco": "Av. Divino Marques Guimarães 321, bairro Nova Pampulha, Vespasiano ",
    "disciplina": "AS IV",
    "preceptor": "KENIA CAMPOS GALVÃO",
    "estudante": 6,
    "periodo_original": "QUARTO",
    "turma": "FAMED XXIV",
    "categoria": "Médico Generalista / MFC",
    "turno": "TARDE",
    "latitude": -19.78157,
    "longitude": -43.97234
  },
  {
    "id": 35,
    "local": "ESF Gameleira",
    "endereco": "R. Gameleira 399, Confins - MG, 33500-000",
    "disciplina": "AS IV",
    "preceptor": "DANILO GUSTAVO GONÇALVES FERREIRA ROMANELLI",
    "estudante": 5,
    "periodo_original": "QUARTO",
    "turma": "FAMED XXIV",
    "categoria": "Médico Generalista / MFC",
    "turno": "TARDE",
    "latitude": -19.62812,
    "longitude": -43.98394
  },
  {
    "id": 36,
    "local": "UBS Rosário",
    "endereco": "R. Salvador Correia de Sá, 104 - Rosário, Sabará - MG, 34555-120",
    "disciplina": "AS V",
    "preceptor": "ANDRESSA MOTA MEURER",
    "estudante": 7,
    "periodo_original": "QUINTO",
    "turma": "FAMED XXIII",
    "categoria": "Médico Generalista / MFC",
    "turno": "MANHÃ",
    "latitude": -19.88732,
    "longitude": -43.82577
  },
  {
    "id": 37,
    "local": "UBS Roça Grande",
    "endereco": "Rua Santana 545, Roça Grande - Sabará - MG",
    "disciplina": "AS V",
    "preceptor": "ROMULO VASCONCELLOS RIBEIRO MATOS",
    "estudante": 7,
    "periodo_original": "QUINTO",
    "turma": "FAMED XXIII",
    "categoria": "Médico Generalista / MFC",
    "turno": "MANHÃ",
    "latitude": -19.89159,
    "longitude": -43.83156
  },
  {
    "id": 38,
    "local": "UBS Nova Pampulha (Policlínica Niova Pampulha)",
    "endereco": "Av. Divino Marques Guimarães 321, bairro Nova Pampulha, Vespasiano (ao lado da Escola Municipal Bárbara Maria Salomão)",
    "disciplina": "AS V",
    "preceptor": "KENIA CAMPOS GALVÃO",
    "estudante": 7,
    "periodo_original": "QUINTO",
    "turma": "FAMED XXIII",
    "categoria": "Médico Generalista / MFC",
    "turno": "MANHÃ",
    "latitude": -19.78155,
    "longitude": -43.97218
  },
  {
    "id": 39,
    "local": "UBS Lagoinha de Fora",
    "endereco": "R. Alaíde Antônio, 148 - Lagoinha de Fora- Lagoa Santa-MG",
    "disciplina": "AS V",
    "preceptor": "GABRIELE PEREIRA NUNES",
    "estudante": 6,
    "periodo_original": "QUINTO",
    "turma": "FAMED XXIII",
    "categoria": "Médico Generalista / MFC",
    "turno": "MANHÃ",
    "latitude": -19.68468,
    "longitude": -43.84762
  },
  {
    "id": 40,
    "local": "UBS Caieiras",
    "endereco": "R. Dona Mariana da Costa 959, Caieiras, Vespasiano",
    "disciplina": "AS V",
    "preceptor": "KELLY JACKELINE NUNES MATOS",
    "estudante": 6,
    "periodo_original": "QUINTO",
    "turma": "FAMED XXIII",
    "categoria": "Médico Generalista / MFC",
    "turno": "MANHÃ",
    "latitude": -19.68645,
    "longitude": -43.91388
  },
  {
    "id": 41,
    "local": "Centro de Saúde Rio Branco",
    "endereco": "R. Crisanto Muniz, 120 - Rio Branco, Belo Horizonte - MG, 31535-450",
    "disciplina": "AS V",
    "preceptor": "NATÁLIA ALVES FERREIRA",
    "estudante": 6,
    "periodo_original": "QUINTO",
    "turma": "FAMED XXIII",
    "categoria": "Médico Generalista / MFC",
    "turno": "MANHÃ",
    "latitude": -19.81389,
    "longitude": -43.98024
  },
  {
    "id": 42,
    "local": "Gavea I -  UBS  Inah Vercesi dos Santos",
    "endereco": "R. Yuri Gagarin, 425 - Gávea, Vespasiano - MG, 33200-000",
    "disciplina": "AS V",
    "preceptor": "IGOR FRANCISCO ROSA",
    "estudante": 7,
    "periodo_original": "QUINTO",
    "turma": "FAMED XXIII",
    "categoria": "Médico Generalista / MFC",
    "turno": "MANHÃ",
    "latitude": -19.75417,
    "longitude": -43.94078
  },
  {
    "id": 43,
    "local": "ESF Adélia Issa",
    "endereco": "Rua Luiz Pires, 55, Adélia Issa - Pedro Leopoldo - MG CEP 33600-000",
    "disciplina": "AS V",
    "preceptor": "DANIEL DE MEDEIROS BATISTA",
    "estudante": 6,
    "periodo_original": "QUINTO",
    "turma": "FAMED XXIII",
    "categoria": "Médico Generalista / MFC",
    "turno": "MANHÃ",
    "latitude": -19.58808,
    "longitude": -44.02925
  },
  {
    "id": 44,
    "local": "Centro de Saúde Zilah Spósito",
    "endereco": "R. Coquilhos, 85 - Jaqueline, Belo Horizonte - MG, 31748-495",
    "disciplina": "AS V",
    "preceptor": "GABRIELA MARTINS PEREZ GARCIA",
    "estudante": 6,
    "periodo_original": "QUINTO",
    "turma": "FAMED XXIII",
    "categoria": "Médico Generalista / MFC",
    "turno": "MANHÃ",
    "latitude": -19.80463,
    "longitude": -43.92812
  },
  {
    "id": 45,
    "local": "Centro de Saúde Serra Verde",
    "endereco": "Rua Guido Leão, Praça Fabrício Soares da Silva, 10 - Serra Verde, Belo Horizonte - MG, 31630-572",
    "disciplina": "AS V",
    "preceptor": "LAIS MARCATTO DO CARMO",
    "estudante": 6,
    "periodo_original": "QUINTO",
    "turma": "FAMED XXIII",
    "categoria": "Médico Generalista / MFC",
    "turno": "MANHÃ",
    "latitude": -19.79523,
    "longitude": -43.95372
  },
  {
    "id": 46,
    "local": "Centro de Saúde Jardim Felicidade",
    "endereco": " R. Sônia Braz Xavier, 321, Jardiim Felicidade Belo Horizonte - MG",
    "disciplina": "AS V",
    "preceptor": "EVELINE JULIETA PETRUCELI ALMEIDA",
    "estudante": 6,
    "periodo_original": "QUINTO",
    "turma": "FAMED XXIII",
    "categoria": "Médico Generalista / MFC",
    "turno": "MANHÃ",
    "latitude": -19.82245,
    "longitude": -43.93114
  },
  {
    "id": 47,
    "local": "Centro de Saúde Alcides Lins",
    "endereco": "R. Panema, 275 - Concórdia, Belo Horizonte - MG, 31130-620",
    "disciplina": "AS V",
    "preceptor": "MATHEUS SERAPIÃO TEODORO",
    "estudante": 7,
    "periodo_original": "QUINTO",
    "turma": "FAMED XXIII",
    "categoria": "Médico Generalista / MFC",
    "turno": "MANHÃ",
    "latitude": -19.89514,
    "longitude": -43.93765
  },
  {
    "id": 48,
    "local": "Centro de Saúde Alcides Lins",
    "endereco": "R. Panema, 275 - Concórdia, Belo Horizonte - MG, 31130-620",
    "disciplina": "AS V",
    "preceptor": "MARINA FARIA SALOMÃO",
    "estudante": 6,
    "periodo_original": "QUINTO",
    "turma": "FAMED XXIII",
    "categoria": "Médico Generalista / MFC",
    "turno": "MANHÃ",
    "latitude": -19.89514,
    "longitude": -43.93765
  },
  {
    "id": 49,
    "local": "Centro de Saúde Aarão Reis",
    "endereco": "Av. Waldomiro Lobo, 177 - Aarão Reis, Belo Horizonte - MG, 31814-620",
    "disciplina": "AS V",
    "preceptor": "WILLIE MARQUES MARTINS",
    "estudante": 6,
    "periodo_original": "QUINTO",
    "turma": "FAMED XXIII",
    "categoria": "Médico Generalista / MFC",
    "turno": "MANHÃ",
    "latitude": -19.84576,
    "longitude": -43.92087
  },
  {
    "id": 50,
    "local": "Centro de Saúde Aarão Reis",
    "endereco": "Av. Waldomiro Lobo, 177 - Aarão Reis, Belo Horizonte - MG, 31814-620",
    "disciplina": "AS V",
    "preceptor": "LEONARDO LACERDA DE CARVALHO",
    "estudante": 6,
    "periodo_original": "QUINTO",
    "turma": "FAMED XXIII",
    "categoria": "Médico Generalista / MFC",
    "turno": "MANHÃ",
    "latitude": -19.84576,
    "longitude": -43.92087
  },
  {
    "id": 51,
    "local": "CEM Venda Nova",
    "endereco": "Rua Padre Pedro Pinto, 322 - Venda Nova, Belo Horizonte - MG, 31610-000 ",
    "disciplina": "SA I ",
    "preceptor": "RAFAELLA RODRIGUES COSTA",
    "estudante": 6,
    "periodo_original": "QUINTO",
    "turma": "FAMED XXIII",
    "categoria": "Médico Especialista",
    "turno": "TARDE",
    "latitude": -19.81844,
    "longitude": -43.95332
  },
  {
    "id": 52,
    "local": "Policlínica Nova Pampulha",
    "endereco": "R. Divino Marques Guimarães, 321 - Nova Pampulha, Vespasiano - MG, 33200-000",
    "disciplina": "SA I ",
    "preceptor": "DIRCE TAMIRES DOMINGUES BRANDÃO",
    "estudante": 7,
    "periodo_original": "QUINTO",
    "turma": "FAMED XXIII",
    "categoria": "Médico Especialista",
    "turno": "MANHÃ",
    "latitude": -19.78158,
    "longitude": -43.97232
  },
  {
    "id": 53,
    "local": "CEMAE",
    "endereco": "Rua Francisco de Assis Pereira, 191 - Centro, Sabará - MG",
    "disciplina": "SA I ",
    "preceptor": "SYOMARA MARY DE SOUZA",
    "estudante": 7,
    "periodo_original": "QUINTO",
    "turma": "FAMED XXIII",
    "categoria": "Médico Especialista",
    "turno": "MANHÃ",
    "latitude": -19.88836,
    "longitude": -43.80795
  },
  {
    "id": 54,
    "local": "CEM Venda Nova",
    "endereco": "Rua Padre Pedro Pinto, 322 - Venda Nova, Belo Horizonte - MG, 31610-000 ",
    "disciplina": "SA I ",
    "preceptor": "OTÁVIO AUGUSTO PINTO",
    "estudante": 6,
    "periodo_original": "QUINTO",
    "turma": "FAMED XXIII",
    "categoria": "Médico Especialista",
    "turno": "MANHÃ",
    "latitude": -19.81831,
    "longitude": -43.95334
  },
  {
    "id": 55,
    "local": "CEM Noroeste",
    "endereco": "Rua Padre Eustáquio, 1951 - 2º andar, Padre Eustáquio - Belo Horizonte, MG, 30720-100",
    "disciplina": "SA I ",
    "preceptor": "DIRCE TAMIRES DOMINGUES BRANDÃO",
    "estudante": 7,
    "periodo_original": "QUINTO",
    "turma": "FAMED XXIII",
    "categoria": "Médico Especialista",
    "turno": "TARDE",
    "latitude": -19.91517,
    "longitude": -43.97078
  },
  {
    "id": 56,
    "local": "CEM Noroeste",
    "endereco": "Rua Padre Eustáquio, 1951 - 2º andar, Padre Eustáquio - Belo Horizonte, MG, 30720-100",
    "disciplina": "SA I ",
    "preceptor": "RAFAELLA RODRIGUES COSTA",
    "estudante": 7,
    "periodo_original": "QUINTO",
    "turma": "FAMED XXIII",
    "categoria": "Médico Especialista",
    "turno": "TARDE",
    "latitude": -19.91517,
    "longitude": -43.97078
  },
  {
    "id": 57,
    "local": "CEM Venda Nova",
    "endereco": "Rua Padre Pedro Pinto, 322 - Venda Nova, Belo Horizonte - MG, 31610-000 ",
    "disciplina": "SA I ",
    "preceptor": "BRUNA BOECHAT RIDOLFI",
    "estudante": 6,
    "periodo_original": "QUINTO",
    "turma": "FAMED XXIII",
    "categoria": "Médico Especialista",
    "turno": "TARDE",
    "latitude": -19.81843,
    "longitude": -43.95337
  },
  {
    "id": 58,
    "local": "CEMAE",
    "endereco": "Rua Francisco de Assis Pereira, 191 - Centro, Sabará - MG",
    "disciplina": "SA I ",
    "preceptor": "SYOMARA MARY DE SOUZA",
    "estudante": 7,
    "periodo_original": "QUINTO",
    "turma": "FAMED XXIII",
    "categoria": "Médico Especialista",
    "turno": "TARDE",
    "latitude": -19.88836,
    "longitude": -43.80792
  },
  {
    "id": 59,
    "local": "UBS Rosário",
    "endereco": "R. Salvador Correia de Sá, 104 - Rosário, Sabará - MG, 34555-120",
    "disciplina": "AS VI",
    "preceptor": "IGO RIAN ALMEIDA BARROSO",
    "estudante": 7,
    "periodo_original": "SEXTO",
    "turma": "FAMED XXII",
    "categoria": "Médico Especialista",
    "turno": "TARDE",
    "latitude": -19.88739,
    "longitude": -43.82576
  },
  {
    "id": 60,
    "local": "UBS Roça Grande",
    "endereco": "Rua Santana 545, Roça Grande - Sabará - MG",
    "disciplina": "AS VI",
    "preceptor": "ROMULO VASCONCELLOS RIBEIRO MATOS",
    "estudante": 7,
    "periodo_original": "SEXTO",
    "turma": "FAMED XXII",
    "categoria": "Médico Especialista",
    "turno": "TARDE",
    "latitude": -19.89163,
    "longitude": -43.83161
  },
  {
    "id": 61,
    "local": "UBS Nova Pampulha (Policlínica Niova Pampulha)",
    "endereco": "Av. Divino Marques Guimarães 321, bairro Nova Pampulha, Vespasiano (ao lado da Escola Municipal Bárbara Maria Salomão)",
    "disciplina": "AS VI",
    "preceptor": "KATTYANE ABELHA SIMÕES",
    "estudante": 6,
    "periodo_original": "SEXTO",
    "turma": "FAMED XXII",
    "categoria": "Médico Especialista",
    "turno": "MANHÃ",
    "latitude": -19.78155,
    "longitude": -43.97232
  },
  {
    "id": 62,
    "local": "UBS Cuidar Sobradinho",
    "endereco": "R. Aleomar Baleeiro 316, Bairro Miguel A Salomão, Lagoa Santa, MG CEP 33400-000",
    "disciplina": "AS VI",
    "preceptor": "LAURA LOSCHI DE OLIVEIRA CLARIM",
    "estudante": 6,
    "periodo_original": "SEXTO",
    "turma": "FAMED XXII",
    "categoria": "Médico Especialista",
    "turno": "MANHÃ",
    "latitude": -19.62444,
    "longitude": -43.89179
  },
  {
    "id": 63,
    "local": "USF Centro",
    "endereco": "R. Mal. Deodoro da Fonseca, 410 - Centro - Lagoa Santa- MG",
    "disciplina": "AS VI",
    "preceptor": "DANIELA AGUIAR MENDES RIBEIRO",
    "estudante": 6,
    "periodo_original": "SEXTO",
    "turma": "FAMED XXII",
    "categoria": "Médico Especialista",
    "turno": "MANHÃ",
    "latitude": -19.63018,
    "longitude": -43.89557
  },
  {
    "id": 64,
    "local": "Centro de Saúde Santa Mônica",
    "endereco": "Rua dos Zapotecas 98, bairro Santa Mônica, Belo Horizonte - MG",
    "disciplina": "AS VI",
    "preceptor": "RODRIGO VIEIRA GOMES",
    "estudante": 6,
    "periodo_original": "SEXTO",
    "turma": "FAMED XXII",
    "categoria": "Médico Especialista",
    "turno": "MANHÃ",
    "latitude": -19.82868,
    "longitude": -43.97696
  },
  {
    "id": 65,
    "local": "Posto de Saúde Nossa Senhora de Fátima I",
    "endereco": "R. Rio Verde, 70 - Nossa Sra. de Fatima, Sabará - MG, 34600-630",
    "disciplina": "AS VI",
    "preceptor": "SARAH SANTOS LIMA",
    "estudante": 7,
    "periodo_original": "SEXTO",
    "turma": "FAMED XXII",
    "categoria": "Médico Especialista",
    "turno": "MANHÃ",
    "latitude": -19.86019,
    "longitude": -43.86301
  },
  {
    "id": 66,
    "local": "Posto de Saúde Nossa Senhora de Fátima I",
    "endereco": "R. Rio Verde, 70 - Nossa Sra. de Fatima, Sabará - MG, 34600-630",
    "disciplina": "AS VI",
    "preceptor": "SARAH SANTOS LIMA",
    "estudante": 6,
    "periodo_original": "SEXTO",
    "turma": "FAMED XXII",
    "categoria": "Médico Especialista",
    "turno": "MANHÃ",
    "latitude": -19.86019,
    "longitude": -43.86301
  },
  {
    "id": 67,
    "local": "Centro de Saúde Guarani",
    "endereco": "Rua Pacaembu 160, Guarani, BH - MG - CEP 31840-100",
    "disciplina": "AS VI",
    "preceptor": "MARIA GORETE DE OLIVEIRA",
    "estudante": 6,
    "periodo_original": "SEXTO",
    "turma": "FAMED XXII",
    "categoria": "Médico Especialista",
    "turno": "TARDE",
    "latitude": -19.84235,
    "longitude": -43.92423
  },
  {
    "id": 68,
    "local": "Centro de Saúde Serra Verde",
    "endereco": "Rua Guido Leão, Praça Fabrício Soares da Silva, 10 - Serra Verde, Belo Horizonte - MG, 31630-572",
    "disciplina": "AS VI",
    "preceptor": "RAHMATULLAH JAVIDAN SAMANI NETO",
    "estudante": 6,
    "periodo_original": "SEXTO",
    "turma": "FAMED XXII",
    "categoria": "Médico Especialista",
    "turno": "MANHÃ",
    "latitude": -19.79531,
    "longitude": -43.95374
  },
  {
    "id": 69,
    "local": "Centro de Saúde Serra Verde",
    "endereco": "Rua Guido Leão, Praça Fabrício Soares da Silva, 10 - Serra Verde, Belo Horizonte - MG, 31630-572",
    "disciplina": "AS VI",
    "preceptor": "LAIS MARCATTO DO CARMO",
    "estudante": 6,
    "periodo_original": "SEXTO",
    "turma": "FAMED XXII",
    "categoria": "Médico Especialista",
    "turno": "TARDE",
    "latitude": -19.79531,
    "longitude": -43.95374
  },
  {
    "id": 70,
    "local": "Centro de Saúde Lagoa",
    "endereco": "R. José Sabino Maciel, 176 - Lagoa, Belo Horizonte - MG, 31578-060",
    "disciplina": "AS VI",
    "preceptor": "BRENO BIAGIONI SILVA PAIVA",
    "estudante": 7,
    "periodo_original": "SEXTO",
    "turma": "FAMED XXII",
    "categoria": "Médico Especialista",
    "turno": "TARDE",
    "latitude": -19.80914,
    "longitude": -44.00101
  },
  {
    "id": 71,
    "local": "Centro de Saúde Etelvina Carneiro",
    "endereco": "Rua TV Dois Mil Quatrocentos e Dezessete 235, Etelvina Carneiro,",
    "disciplina": "AS VI",
    "preceptor": "EVELINE JULIETA PETRUCELI ALMEIDA",
    "estudante": 6,
    "periodo_original": "SEXTO",
    "turma": "FAMED XXII",
    "categoria": "Médico Especialista",
    "turno": "TARDE",
    "latitude": -19.81178,
    "longitude": -43.93173
  },
  {
    "id": 72,
    "local": "Centro de Saúde Alcides Lins",
    "endereco": "R. Panema, 275 - Concórdia, Belo Horizonte - MG, 31130-620",
    "disciplina": "AS VI",
    "preceptor": "LUIZ RUGERO MARCATTO DO CARMO",
    "estudante": 6,
    "periodo_original": "SEXTO",
    "turma": "FAMED XXII",
    "categoria": "Médico Especialista",
    "turno": "MANHÃ",
    "latitude": -19.89512,
    "longitude": -43.93752
  },
  {
    "id": 73,
    "local": "Centro de Saúde Aarão Reis",
    "endereco": "Av. Waldomiro Lobo, 177 - Aarão Reis, Belo Horizonte - MG, 31814-620",
    "disciplina": "AS VI",
    "preceptor": "WILLIE MARQUES MARTINS",
    "estudante": 6,
    "periodo_original": "SEXTO",
    "turma": "FAMED XXII",
    "categoria": "Médico Especialista",
    "turno": "MANHÃ",
    "latitude": -19.84571,
    "longitude": -43.92098
  },
  {
    "id": 74,
    "local": "Policlínica Gonçalo de Moura",
    "endereco": "Av. Coletora Três, 205, Bairro Morro Alto, Vespasiano - MG",
    "disciplina": "SA II",
    "preceptor": "LUZICLELIA JANICE DE ANDRADE REIS",
    "estudante": 6,
    "periodo_original": "SEXTO",
    "turma": "FAMED XXII",
    "categoria": "Médico Especialista",
    "turno": "MANHÃ",
    "latitude": -19.76642,
    "longitude": -43.95391
  },
  {
    "id": 75,
    "local": "CEM Noroeste",
    "endereco": "Rua Padre Eustáquio, 1951 - 2º andar, Padre Eustáquio - Belo Horizonte, MG, 30720-100",
    "disciplina": "SA II",
    "preceptor": "PABLO AUGUSTO SILVA DE ASSUNCAO",
    "estudante": 7,
    "periodo_original": "SEXTO",
    "turma": "FAMED XXII",
    "categoria": "Médico Especialista",
    "turno": "MANHÃ",
    "latitude": -19.91519,
    "longitude": -43.97065
  },
  {
    "id": 76,
    "local": "Policlínica Nova Pampulha",
    "endereco": "R. Divino Marques Guimarães, 321 - Nova Pampulha, Vespasiano - MG, 33200-000",
    "disciplina": "SA II",
    "preceptor": "FERNANDA LUDMILLA",
    "estudante": 8,
    "periodo_original": "SEXTO",
    "turma": "FAMED XXII",
    "categoria": "Médico Especialista",
    "turno": "MANHÃ",
    "latitude": -19.78156,
    "longitude": -43.97235
  },
  {
    "id": 77,
    "local": "Policlínica Gonçalo de Moura",
    "endereco": "Av. Coletora Três, 205, Bairro Morro Alto, Vespasiano - MG",
    "disciplina": "SA II",
    "preceptor": "RONIELLY MELO TAVARES",
    "estudante": 8,
    "periodo_original": "SEXTO",
    "turma": "FAMED XXII",
    "categoria": "Médico Especialista",
    "turno": "MANHÃ",
    "latitude": -19.76642,
    "longitude": -43.95391
  },
  {
    "id": 78,
    "local": "CEMAE",
    "endereco": "Rua Francisco de Assis Pereira, 191 - Centro, Sabará - MG",
    "disciplina": "SA II",
    "preceptor": "FERNANDA MARIA FRANCO CASTRO",
    "estudante": 8,
    "periodo_original": "SEXTO",
    "turma": "FAMED XXII",
    "categoria": "Médico Especialista",
    "turno": "MANHÃ",
    "latitude": -19.88836,
    "longitude": -43.80795
  },
  {
    "id": 79,
    "local": "CEMAE",
    "endereco": "Rua Francisco de Assis Pereira, 191 - Centro, Sabará - MG",
    "disciplina": "SA II",
    "preceptor": "ANDERSON NOBURO MITSUI",
    "estudante": 8,
    "periodo_original": "SEXTO",
    "turma": "FAMED XXII",
    "categoria": "Médico Especialista",
    "turno": "MANHÃ",
    "latitude": -19.88836,
    "longitude": -43.80795
  },
  {
    "id": 80,
    "local": "Policlínica Nova Pampulha",
    "endereco": "R. Divino Marques Guimarães, 321 - Nova Pampulha, Vespasiano - MG, 33200-000",
    "disciplina": "SA II",
    "preceptor": "FERNANDA LUDMILA",
    "estudante": 8,
    "periodo_original": "SEXTO",
    "turma": "FAMED XXII",
    "categoria": "Médico Especialista",
    "turno": "MANHÃ",
    "latitude": -19.78156,
    "longitude": -43.97235
  },
  {
    "id": 81,
    "local": "Policlínica Gonçalo de Moura",
    "endereco": "Av. Coletora Três, 205, Bairro Morro Alto, Vespasiano - MG",
    "disciplina": "SA II",
    "preceptor": "RONIELLY MELO TAVARES",
    "estudante": 8,
    "periodo_original": "SEXTO",
    "turma": "FAMED XXII",
    "categoria": "Médico Especialista",
    "turno": "MANHÃ",
    "latitude": -19.76642,
    "longitude": -43.95391
  },
  {
    "id": 82,
    "local": "Policlínica Gonçalo de Moura",
    "endereco": "Av. Coletora Três, 205, Bairro Morro Alto, Vespasiano - MG",
    "disciplina": "SA II",
    "preceptor": "LUZICLELIA JANICE DE ANDRADE REIS",
    "estudante": 6,
    "periodo_original": "SEXTO",
    "turma": "FAMED XXII",
    "categoria": "Médico Especialista",
    "turno": "TARDE",
    "latitude": -19.76642,
    "longitude": -43.95391
  },
  {
    "id": 83,
    "local": "CEM Noroeste",
    "endereco": "Rua Padre Eustáquio, 1951 - 2º andar, Padre Eustáquio - Belo Horizonte, MG, 30720-100",
    "disciplina": "SA II",
    "preceptor": "MARIANA VAZ DE MELO DINIZ",
    "estudante": 6,
    "periodo_original": "SEXTO",
    "turma": "FAMED XXII",
    "categoria": "Médico Especialista",
    "turno": "TARDE",
    "latitude": -19.91519,
    "longitude": -43.97065
  },
  {
    "id": 84,
    "local": "Ambulatório do Hospital da Baleia",
    "endereco": "R. Juramento, 1464, Saudade - Belo Horizonte, MG",
    "disciplina": "SA II",
    "preceptor": "RAQUEL LEÃO SILVA",
    "estudante": 6,
    "periodo_original": "SEXTO",
    "turma": "FAMED XXII",
    "categoria": "Médico Especialista",
    "turno": "TARDE",
    "latitude": -19.92241,
    "longitude": -43.89837
  },
  {
    "id": 85,
    "local": "CEM Venda Nova",
    "endereco": "Rua Padre Pedro Pinto, 322 - Venda Nova, Belo Horizonte - MG, 31610-000 ",
    "disciplina": "SA II",
    "preceptor": "VICTOR CINTRA",
    "estudante": 6,
    "periodo_original": "SEXTO",
    "turma": "FAMED XXII",
    "categoria": "Médico Especialista",
    "turno": "TARDE",
    "latitude": -19.81847,
    "longitude": -43.95332
  },
  {
    "id": 86,
    "local": "Ambulatório do Hospital da Baleia",
    "endereco": "R. Juramento, 1464, Saudade - Belo Horizonte, MG",
    "disciplina": "SA II",
    "preceptor": "RAQUEL LEÃO SILVA",
    "estudante": 7,
    "periodo_original": "SEXTO",
    "turma": "FAMED XXII",
    "categoria": "Médico Especialista",
    "turno": "TARDE",
    "latitude": -19.92241,
    "longitude": -43.89837
  },
  {
    "id": 87,
    "local": "CEMAE",
    "endereco": "Rua Francisco de Assis Pereira, 191 - Centro, Sabará - MG",
    "disciplina": "SA II",
    "preceptor": "ANDESON NOBURO MITSUI",
    "estudante": 7,
    "periodo_original": "SEXTO",
    "turma": "FAMED XXII",
    "categoria": "Médico Especialista",
    "turno": "TARDE",
    "latitude": -19.88836,
    "longitude": -43.80795
  },
  {
    "id": 88,
    "local": "Policlínica Nova Pampulha",
    "endereco": "R. Divino Marques Guimarães, 321 - Nova Pampulha, Vespasiano - MG, 33200-000",
    "disciplina": "SA II",
    "preceptor": "FERNANDA LUDMILLA",
    "estudante": 7,
    "periodo_original": "SEXTO",
    "turma": "FAMED XXII",
    "categoria": "Médico Especialista",
    "turno": "TARDE",
    "latitude": -19.78156,
    "longitude": -43.97235
  },
  {
    "id": 89,
    "local": "CEM Venda Nova",
    "endereco": "Rua Padre Pedro Pinto, 322 - Venda Nova, Belo Horizonte - MG, 31610-000 ",
    "disciplina": "SA II",
    "preceptor": "RAFAEL MATTOS TAVARES",
    "estudante": 7,
    "periodo_original": "SEXTO",
    "turma": "FAMED XXII",
    "categoria": "Médico Especialista",
    "turno": "TARDE",
    "latitude": -19.81847,
    "longitude": -43.95332
  },
  {
    "id": 90,
    "local": "Centro de Saúde MG20",
    "endereco": "Rua Padre Argemiro Moreira, 11900, Maria Teresa, Belo Horizonte - MG, 31873-168",
    "disciplina": "SCA I",
    "preceptor": "MARIA CLARA CAJAHIBA MACHADO",
    "estudante": 8,
    "periodo_original": "SEXTO",
    "turma": "FAMED XXII",
    "categoria": "Médico Especialista",
    "turno": "MANHÃ",
    "latitude": -19.80694,
    "longitude": -43.88375
  },
  {
    "id": 91,
    "local": "Gavea II -  UBS  Inah Vercesi dos Santos",
    "endereco": "R. Yuri Gagarin, 425 - Gávea, Vespasiano - MG, 33200-000",
    "disciplina": "SCA I",
    "preceptor": "BRUNO FLAVIO RODRIGUES",
    "estudante": 6,
    "periodo_original": "SEXTO",
    "turma": "FAMED XXII",
    "categoria": "Médico Especialista",
    "turno": "MANHÃ",
    "latitude": -19.75417,
    "longitude": -43.94079
  },
  {
    "id": 92,
    "local": "UBS Otília Levinda Costa Matos - (UBS Vida Nova)",
    "endereco": "Rua dos Cardeais. S/N, Vida Nova - Vespasiano - MG",
    "disciplina": "SCA I",
    "preceptor": "ALESSANDRA DANIELA COELHO ZEN PINTO",
    "estudante": 8,
    "periodo_original": "SEXTO",
    "turma": "FAMED XXII",
    "categoria": "Médico Especialista",
    "turno": "MANHÃ",
    "latitude": -19.76186,
    "longitude": -43.98804
  },
  {
    "id": 93,
    "local": "Centro de Saúde Jardim Europa",
    "endereco": "Rua Edimburgo, 140, Europa, Belo Horizonte - MG, 31620-530",
    "disciplina": "SCA I",
    "preceptor": "ALINE SILVA TAVARES",
    "estudante": 6,
    "periodo_original": "SEXTO",
    "turma": "FAMED XXII",
    "categoria": "Médico Especialista",
    "turno": "MANHÃ",
    "latitude": -19.80016,
    "longitude": -43.96709
  },
  {
    "id": 94,
    "local": "UBS Jardim da Glória",
    "endereco": "RUA AARAO REIS 35 CEP: 33206070 - Jardim Gloria - Vespasiano - MG",
    "disciplina": "SCA I",
    "preceptor": "ALESSANDRA DANIELA COELHO ZEN PINTO",
    "estudante": 7,
    "periodo_original": "SEXTO",
    "turma": "FAMED XXII",
    "categoria": "Médico Especialista",
    "turno": "TARDE",
    "latitude": -19.74889,
    "longitude": -43.95244
  },
  {
    "id": 95,
    "local": "Gavea II -  UBS  Inah Vercesi dos Santos",
    "endereco": "R. Yuri Gagarin, 425 - Gávea, Vespasiano - MG, 33200-000",
    "disciplina": "SCA I",
    "preceptor": "BRUNO FLAVIO RODRIGUES",
    "estudante": 7,
    "periodo_original": "SEXTO",
    "turma": "FAMED XXII",
    "categoria": "Médico Especialista",
    "turno": "TARDE",
    "latitude": -19.75417,
    "longitude": -43.94079
  },
  {
    "id": 96,
    "local": "UBS Jardim da Glória",
    "endereco": "RUA AARAO REIS 35 CEP: 33206070 - Jardim Gloria - Vespasiano - MG",
    "disciplina": "SCA I",
    "preceptor": "ALINE SILVA TAVARES",
    "estudante": 6,
    "periodo_original": "SEXTO",
    "turma": "FAMED XXII",
    "categoria": "Médico Especialista",
    "turno": "TARDE",
    "latitude": -19.74889,
    "longitude": -43.95244
  },
  {
    "id": 97,
    "local": "Centro de Saúde Serra Verde",
    "endereco": "Praça Fabricio Soares da Silva, 10, Serra Verde, Belo Horizonte - MG, 31630-572",
    "disciplina": "SCA I",
    "preceptor": "GLAUCIA GATTONI MEDEIROS",
    "estudante": 5,
    "periodo_original": "SEXTO",
    "turma": "FAMED XXII",
    "categoria": "Médico Especialista",
    "turno": "TARDE",
    "latitude": -19.79525,
    "longitude": -43.95377
  },
  {
    "id": 98,
    "local": "Centro de Saúde São Jorge",
    "endereco": "Rua Oscar Trompowsky, 1698, Nova Granada, Belo Horizonte - MG, 30451-163",
    "disciplina": "SCA I",
    "preceptor": "KATIA ROBERTA MENDES DOS SANTOS",
    "estudante": 5,
    "periodo_original": "SEXTO",
    "turma": "FAMED XXII",
    "categoria": "Médico Especialista",
    "turno": "TARDE",
    "latitude": -19.94464,
    "longitude": -43.96489
  },
  {
    "id": 99,
    "local": "Policlínica Nova Pampulha",
    "endereco": "R. Divino Marques Guimarães, 321 - Nova Pampulha, Vespasiano - MG, 33200-000",
    "disciplina": "SCA I",
    "preceptor": "AGHATA MARCELA ANDRADE DE AGUIAR",
    "estudante": 5,
    "periodo_original": "SEXTO",
    "turma": "FAMED XXII",
    "categoria": "Médico Especialista",
    "turno": "TARDE",
    "latitude": -19.78156,
    "longitude": -43.97235
  },
  {
    "id": 100,
    "local": "Centro de Saúde MG20",
    "endereco": "Rua Padre Argemiro Moreira, 11900, Maria Teresa, Belo Horizonte - MG, 31873-168",
    "disciplina": "SCA I",
    "preceptor": "MARIA CLARA CAJAHIBA MACHADO",
    "estudante": 7,
    "periodo_original": "SEXTO",
    "turma": "FAMED XXII",
    "categoria": "Médico Especialista",
    "turno": "TARDE",
    "latitude": -19.80694,
    "longitude": -43.88375
  },
  {
    "id": 101,
    "local": "Centro de Saúde Serra Verde",
    "endereco": "Praça Fabricio Soares da Silva, 10, Serra Verde, Belo Horizonte - MG, 31630-572",
    "disciplina": "SCA I",
    "preceptor": "MARCELA CAMPOS DOS REIS",
    "estudante": 6,
    "periodo_original": "SEXTO",
    "turma": "FAMED XXII",
    "categoria": "Médico Especialista",
    "turno": "TARDE",
    "latitude": -19.79525,
    "longitude": -43.95377
  },
  {
    "id": 102,
    "local": "UBS Cuidar Vila José Fagundes",
    "endereco": "R. Pinto Alves. 3755, Vila Maria, CEP 33400-000",
    "disciplina": "AS VII",
    "preceptor": "RAFAELA DE OLIVEIRA ANDRADE",
    "estudante": 6,
    "periodo_original": "SÉTIMO",
    "turma": "FAMED XXI",
    "categoria": "Médico Especialista",
    "turno": "TARDE",
    "latitude": -19.59559,
    "longitude": -43.90812
  },
  {
    "id": 103,
    "local": "UBS Nova Pampulha (Policlínica Niova Pampulha)",
    "endereco": "Av. Divino Marques Guimarães 321, bairro Nova Pampulha, Vespasiano (ao lado da Escola Municipal Bárbara Maria Salomão)",
    "disciplina": "AS VII",
    "preceptor": "KATTYANE ABELHA SIMÕES",
    "estudante": 7,
    "periodo_original": "SÉTIMO",
    "turma": "FAMED XXI",
    "categoria": "Médico Especialista",
    "turno": "TARDE",
    "latitude": -19.78158,
    "longitude": -43.97219
  },
  {
    "id": 104,
    "local": "UBS Nova Pampulha (Policlínica Niova Pampulha)",
    "endereco": "Av. Divino Marques Guimarães 321, bairro Nova Pampulha, Vespasiano (ao lado da Escola Municipal Bárbara Maria Salomão)",
    "disciplina": "AS VII",
    "preceptor": "ANA JÚLIA GONÇALVES",
    "estudante": 6,
    "periodo_original": "SÉTIMO",
    "turma": "FAMED XXI",
    "categoria": "Médico Especialista",
    "turno": "MANHÃ",
    "latitude": -19.78158,
    "longitude": -43.97219
  },
  {
    "id": 105,
    "local": "UBS Jardim da Glória",
    "endereco": "RUA AARAO REIS 35 CEP: 33206070 - Jardim Gloria - Vespasiano - MG",
    "disciplina": "AS VII",
    "preceptor": "TATIANA BORGES QUADROS TITO",
    "estudante": 6,
    "periodo_original": "SÉTIMO",
    "turma": "FAMED XXI",
    "categoria": "Médico Especialista",
    "turno": "TARDE",
    "latitude": -19.74883,
    "longitude": -43.95256
  },
  {
    "id": 106,
    "local": "Centro de Saúde Santa Mônica",
    "endereco": "Rua dos Zapotecas 98, bairro Santa Mônica, Belo Horizonte - MG",
    "disciplina": "AS VII",
    "preceptor": "RODRIGO VIEIRA GOMES",
    "estudante": 6,
    "periodo_original": "SÉTIMO",
    "turma": "FAMED XXI",
    "categoria": "Médico Especialista",
    "turno": "MANHÃ",
    "latitude": -19.82925,
    "longitude": -43.97679
  },
  {
    "id": 107,
    "local": "Centro de Saúde Rio Branco",
    "endereco": "R. Crisanto Muniz, 120 - Rio Branco, Belo Horizonte - MG, 31535-450",
    "disciplina": "AS VII",
    "preceptor": "CAMILA MARTINS FERNANDES",
    "estudante": 6,
    "periodo_original": "SÉTIMO",
    "turma": "FAMED XXI",
    "categoria": "Médico Especialista",
    "turno": "MANHÃ",
    "latitude": -19.81396,
    "longitude": -43.98029
  },
  {
    "id": 108,
    "local": "PSF Cuidar Pôr do Sol",
    "endereco": "Rua Paula Pinto, 298 –Por do sol - Lagoa Santa-MG",
    "disciplina": "AS VII",
    "preceptor": "THALITA SIBELI SOUZA SILVA",
    "estudante": 6,
    "periodo_original": "SÉTIMO",
    "turma": "FAMED XXI",
    "categoria": "Médico Especialista",
    "turno": "TARDE",
    "latitude": -19.60787,
    "longitude": -43.90907
  },
  {
    "id": 109,
    "local": "Posto de Saúde General Carneiro",
    "endereco": "R. Rio Grande do Sul, 12, General Carneiro, Sabará, MG, CEP 34585-260",
    "disciplina": "AS VII",
    "preceptor": "JOSÉ CARLOS DOMINGUES JUNIOR",
    "estudante": 8,
    "periodo_original": "SÉTIMO",
    "turma": "FAMED XXI",
    "categoria": "Médico Especialista",
    "turno": "TARDE",
    "latitude": -19.87899,
    "longitude": -43.85417
  },
  {
    "id": 110,
    "local": "ESF Gameleira",
    "endereco": "R. Gameleira 399, Confins - MG, 33500-000",
    "disciplina": "AS VII",
    "preceptor": "DANILO GUSTAVO GONÇALVES FERREIRA ROMANELLI",
    "estudante": 6,
    "periodo_original": "SÉTIMO",
    "turma": "FAMED XXI",
    "categoria": "Médico Especialista",
    "turno": "TARDE",
    "latitude": -19.62827,
    "longitude": -43.98395
  },
  {
    "id": 111,
    "local": "ESF Adélia Issa",
    "endereco": "Rua Luiz Pires, 55, Adélia Issa - Pedro Leopoldo - MG CEP 33600-000",
    "disciplina": "AS VII",
    "preceptor": "DANIEL DE MEDEIROS BATISTA",
    "estudante": 7,
    "periodo_original": "SÉTIMO",
    "turma": "FAMED XXI",
    "categoria": "Médico Especialista",
    "turno": "TARDE",
    "latitude": -19.58792,
    "longitude": -44.02839
  },
  {
    "id": 112,
    "local": "Centro de Saúde Jardim Felicidade",
    "endereco": " R. Sônia Braz Xavier, 321, Jardiim Felicidade Belo Horizonte - MG",
    "disciplina": "AS VII",
    "preceptor": "VINICIUS REZENDE SILVEIRA",
    "estudante": 6,
    "periodo_original": "SÉTIMO",
    "turma": "FAMED XXI",
    "categoria": "Médico Especialista",
    "turno": "TARDE",
    "latitude": -19.82238,
    "longitude": -43.93116
  },
  {
    "id": 113,
    "local": "Centro de Saúde Aarão Reis",
    "endereco": "Av. Waldomiro Lobo, 177 - Aarão Reis, Belo Horizonte - MG, 31814-620",
    "disciplina": "AS VII",
    "preceptor": "LEONARDO LACERDA DE CARVALHO",
    "estudante": 6,
    "periodo_original": "SÉTIMO",
    "turma": "FAMED XXI",
    "categoria": "Médico Especialista",
    "turno": "TARDE",
    "latitude": -19.84576,
    "longitude": -43.92101
  },
  {
    "id": 114,
    "local": "URS Sagrada Família",
    "endereco": "Rua Joaquim Felício, 101, Sagrada Família, Belo Horizonte - MG, 31030-200",
    "disciplina": "SA III",
    "preceptor": "RICARDO PEIXOTO GONÇALVES",
    "estudante": 5,
    "periodo_original": "SÉTIMO",
    "turma": "FAMED XXI",
    "categoria": "Médico Especialista",
    "turno": "TARDE",
    "latitude": -19.90788,
    "longitude": -43.92802
  },
  {
    "id": 115,
    "local": "URS Sagrada Família",
    "endereco": "Rua Joaquim Felício, 101, Sagrada Família, Belo Horizonte - MG, 31030-200",
    "disciplina": "SA III",
    "preceptor": "MARCELO RIBEIRO BASTOS",
    "estudante": 5,
    "periodo_original": "SÉTIMO",
    "turma": "FAMED XXI",
    "categoria": "Médico Especialista",
    "turno": "TARDE",
    "latitude": -19.90788,
    "longitude": -43.92802
  },
  {
    "id": 116,
    "local": "URS Sagrada Família",
    "endereco": "Rua Joaquim Felício, 101, Sagrada Família, Belo Horizonte - MG, 31030-200",
    "disciplina": "SA III",
    "preceptor": "MARCELO RIBEIRO BASTOS",
    "estudante": 5,
    "periodo_original": "SÉTIMO",
    "turma": "FAMED XXI",
    "categoria": "Médico Especialista",
    "turno": "TARDE",
    "latitude": -19.90788,
    "longitude": -43.92802
  },
  {
    "id": 117,
    "local": "URS Sagrada Família",
    "endereco": "Rua Joaquim Felício, 101, Sagrada Família, Belo Horizonte - MG, 31030-200",
    "disciplina": "SA III",
    "preceptor": "NAILA TRÍCIA DO ESPÍRITO SANTO",
    "estudante": 6,
    "periodo_original": "SÉTIMO",
    "turma": "FAMED XXI",
    "categoria": "Médico Especialista",
    "turno": "MANHÃ",
    "latitude": -19.90788,
    "longitude": -43.92802
  },
  {
    "id": 118,
    "local": "URS Sagrada Família",
    "endereco": "Rua Joaquim Felício, 101, Sagrada Família, Belo Horizonte - MG, 31030-200",
    "disciplina": "SA III",
    "preceptor": "WAGNER MENDES",
    "estudante": 6,
    "periodo_original": "SÉTIMO",
    "turma": "FAMED XXI",
    "categoria": "Médico Especialista",
    "turno": "MANHÃ",
    "latitude": -19.90788,
    "longitude": -43.92802
  },
  {
    "id": 119,
    "local": "URS Sagrada Família",
    "endereco": "Rua Joaquim Felício, 101, Sagrada Família, Belo Horizonte - MG, 31030-200",
    "disciplina": "SA III",
    "preceptor": "RICARDO PEIXOTO GONÇALVES",
    "estudante": 6,
    "periodo_original": "SÉTIMO",
    "turma": "FAMED XXI",
    "categoria": "Médico Especialista",
    "turno": "MANHÃ",
    "latitude": -19.90788,
    "longitude": -43.92802
  },
  {
    "id": 120,
    "local": "URS Sagrada Família",
    "endereco": "Rua Joaquim Felício, 101, Sagrada Família, Belo Horizonte - MG, 31030-200",
    "disciplina": "SA III",
    "preceptor": "LUIZA RAKSA REZENDE",
    "estudante": 6,
    "periodo_original": "SÉTIMO",
    "turma": "FAMED XXI",
    "categoria": "Médico Especialista",
    "turno": "MANHÃ",
    "latitude": -19.90788,
    "longitude": -43.92802
  },
  {
    "id": 121,
    "local": "URS Padre Eustáquio",
    "endereco": "Rua Padre Eustáquio, 1951, Padre Eustáquio - Belo Horizonte, MG, 30720-100",
    "disciplina": "CC I",
    "preceptor": "KLISMMAN MARINHO LINS SOBREIRA",
    "estudante": 4,
    "periodo_original": "SÉTIMO",
    "turma": "FAMED XXI",
    "categoria": "Médico Especialista",
    "turno": "TARDE",
    "latitude": -19.91516,
    "longitude": -43.97069
  },
  {
    "id": 122,
    "local": "URS Padre Eustáquio",
    "endereco": "Rua Padre Eustáquio, 1951, Padre Eustáquio - Belo Horizonte, MG, 30720-100",
    "disciplina": "CC I",
    "preceptor": "LUCAS WENDELL DA CRUZ",
    "estudante": 4,
    "periodo_original": "SÉTIMO",
    "turma": "FAMED XXI",
    "categoria": "Médico Especialista",
    "turno": "TARDE",
    "latitude": -19.91516,
    "longitude": -43.97069
  },
  {
    "id": 123,
    "local": "URS Campos Sales",
    "endereco": "Rua Campos Sales, 472, Calafate - Belo Horizonte, MG, 30411-470",
    "disciplina": "CC I",
    "preceptor": "LEONARDO SALVIANO DA FONSECA REZENDE",
    "estudante": 4,
    "periodo_original": "SÉTIMO",
    "turma": "FAMED XXI",
    "categoria": "Médico Especialista",
    "turno": "TARDE",
    "latitude": -19.92681,
    "longitude": -43.97765
  },
  {
    "id": 124,
    "local": "URS Centro-Sul",
    "endereco": "Rua Paraiba, 890 - 1º andar, Savassi, Belo Horizonte - MG, 30130-145",
    "disciplina": "CC I",
    "preceptor": "LUCAS WENDELL DA CRUZ",
    "estudante": 4,
    "periodo_original": "SÉTIMO",
    "turma": "FAMED XXI",
    "categoria": "Médico Especialista",
    "turno": "TARDE",
    "latitude": -19.93412,
    "longitude": -43.93335
  },
  {
    "id": 125,
    "local": "URS Centro-Sul",
    "endereco": "Rua Paraiba, 890 - 1º andar, Savassi, Belo Horizonte - MG, 30130-145",
    "disciplina": "CC I",
    "preceptor": "CAIO EDUARDO DE CARVALHO",
    "estudante": 4,
    "periodo_original": "SÉTIMO",
    "turma": "FAMED XXI",
    "categoria": "Médico Especialista",
    "turno": "TARDE",
    "latitude": -19.93412,
    "longitude": -43.93335
  },
  {
    "id": 126,
    "local": "URS Padre Eustáquio",
    "endereco": "Rua Padre Eustáquio, 1951, Padre Eustáquio - Belo Horizonte, MG, 30720-100",
    "disciplina": "CC I",
    "preceptor": "KLISMMAN MARINHO LINS SOBREIRA",
    "estudante": 3,
    "periodo_original": "SÉTIMO",
    "turma": "FAMED XXI",
    "categoria": "Médico Especialista",
    "turno": "TARDE",
    "latitude": -19.91518,
    "longitude": -43.97077
  },
  {
    "id": 127,
    "local": "URS Campos Sales",
    "endereco": "Rua Campos Sales, 472, Calafate - Belo Horizonte, MG, 30411-470",
    "disciplina": "CC I",
    "preceptor": "JADER DAVID RICCO",
    "estudante": 4,
    "periodo_original": "SÉTIMO",
    "turma": "FAMED XXI",
    "categoria": "Médico Especialista",
    "turno": "TARDE",
    "latitude": -19.92681,
    "longitude": -43.97765
  },
  {
    "id": 128,
    "local": "URS Sagrada Família",
    "endereco": "Rua Joaquim Felício, 101, Sagrada Família, Belo Horizonte - MG, 31030-200",
    "disciplina": "CC I",
    "preceptor": "SIMONE VARGAS BENTO",
    "estudante": 4,
    "periodo_original": "SÉTIMO",
    "turma": "FAMED XXI",
    "categoria": "Médico Especialista",
    "turno": "TARDE",
    "latitude": -19.90788,
    "longitude": -43.92802
  },
  {
    "id": 129,
    "local": "URS Sagrada Família",
    "endereco": "Rua Joaquim Felício, 101, Sagrada Família, Belo Horizonte - MG, 31030-200",
    "disciplina": "CC I",
    "preceptor": "CAMILA CORDEIRO GODINHO",
    "estudante": 4,
    "periodo_original": "SÉTIMO",
    "turma": "FAMED XXI",
    "categoria": "Médico Especialista",
    "turno": "TARDE",
    "latitude": -19.90788,
    "longitude": -43.92802
  },
  {
    "id": 130,
    "local": "CEMAE",
    "endereco": "Rua Francisco de Assis Pereira, 191 - Centro, Sabará - MG",
    "disciplina": "CC I",
    "preceptor": "CAMILA CORDEIRO GODINHO",
    "estudante": 5,
    "periodo_original": "SÉTIMO",
    "turma": "FAMED XXI",
    "categoria": "Médico Especialista",
    "turno": "MANHÃ",
    "latitude": -19.88836,
    "longitude": -43.80789
  },
  {
    "id": 131,
    "local": "URS Padre Eustáquio",
    "endereco": "Rua Padre Eustáquio, 1951, Padre Eustáquio - Belo Horizonte, MG, 30720-100",
    "disciplina": "CC I",
    "preceptor": "NINA VASCONCELOS PESSANHA",
    "estudante": 4,
    "periodo_original": "SÉTIMO",
    "turma": "FAMED XXI",
    "categoria": "Médico Especialista",
    "turno": "MANHÃ",
    "latitude": -19.91518,
    "longitude": -43.97077
  },
  {
    "id": 132,
    "local": "URS Padre Eustáquio",
    "endereco": "Rua Padre Eustáquio, 1951, Padre Eustáquio - Belo Horizonte, MG, 30720-100",
    "disciplina": "CC I",
    "preceptor": "JADER DAVID RICCO",
    "estudante": 4,
    "periodo_original": "SÉTIMO",
    "turma": "FAMED XXI",
    "categoria": "Médico Especialista",
    "turno": "TARDE",
    "latitude": -19.91518,
    "longitude": -43.97077
  },
  {
    "id": 133,
    "local": "URS Campos Sales",
    "endereco": "Rua Campos Sales, 472, Calafate - Belo Horizonte, MG, 30411-470",
    "disciplina": "CC I",
    "preceptor": "NINA VASCONCELOS PESSANHA",
    "estudante": 4,
    "periodo_original": "SÉTIMO",
    "turma": "FAMED XXI",
    "categoria": "Médico Especialista",
    "turno": "TARDE",
    "latitude": -19.92681,
    "longitude": -43.97765
  },
  {
    "id": 134,
    "local": "URS Campos Sales",
    "endereco": "Rua Campos Sales, 472, Calafate - Belo Horizonte, MG, 30411-470",
    "disciplina": "CC I",
    "preceptor": "JOSE CELSO DE CARVALHO JUNIOR",
    "estudante": 4,
    "periodo_original": "SÉTIMO",
    "turma": "FAMED XXI",
    "categoria": "Médico Especialista",
    "turno": "TARDE",
    "latitude": -19.92681,
    "longitude": -43.97765
  },
  {
    "id": 135,
    "local": "URS Campos Sales",
    "endereco": "Rua Campos Sales, 472, Calafate - Belo Horizonte, MG, 30411-470",
    "disciplina": "CC I",
    "preceptor": "NINA VASCONCELOS PESSANHA",
    "estudante": 5,
    "periodo_original": "SÉTIMO",
    "turma": "FAMED XXI",
    "categoria": "Médico Especialista",
    "turno": "TARDE",
    "latitude": -19.92681,
    "longitude": -43.97765
  },
  {
    "id": 136,
    "local": "URS Campos Sales",
    "endereco": "Rua Campos Sales, 472, Calafate - Belo Horizonte, MG, 30411-470",
    "disciplina": "CC I",
    "preceptor": "RENATA TIEMI MOREIRA DE RESENDE",
    "estudante": 5,
    "periodo_original": "SÉTIMO",
    "turma": "FAMED XXI",
    "categoria": "Médico Especialista",
    "turno": "TARDE",
    "latitude": -19.92681,
    "longitude": -43.97765
  },
  {
    "id": 137,
    "local": "URS Centro-Sul",
    "endereco": "Rua Paraiba, 890 - 1º andar, Savassi, Belo Horizonte - MG, 30130-145",
    "disciplina": "CC I",
    "preceptor": "LUCAS WENDELL DA CRUZ",
    "estudante": 4,
    "periodo_original": "SÉTIMO",
    "turma": "FAMED XXI",
    "categoria": "Médico Especialista",
    "turno": "TARDE",
    "latitude": -19.93407,
    "longitude": -43.93346
  },
  {
    "id": 138,
    "local": "URS Centro-Sul",
    "endereco": "Rua Paraiba, 890 - 1º andar, Savassi, Belo Horizonte - MG, 30130-145",
    "disciplina": "CC I",
    "preceptor": "RONY GERALDO PESSOA",
    "estudante": 4,
    "periodo_original": "SÉTIMO",
    "turma": "FAMED XXI",
    "categoria": "Médico Especialista",
    "turno": "TARDE",
    "latitude": -19.93407,
    "longitude": -43.93346
  },
  {
    "id": 139,
    "local": "URS Padre Eustáquio",
    "endereco": "Rua Padre Eustáquio, 1951, Padre Eustáquio - Belo Horizonte, MG, 30720-100",
    "disciplina": "CC I",
    "preceptor": "ANA CAROLINA MARTINS FARIA DE ABREU",
    "estudante": 4,
    "periodo_original": "SÉTIMO",
    "turma": "FAMED XXI",
    "categoria": "Médico Especialista",
    "turno": "TARDE",
    "latitude": -19.91518,
    "longitude": -43.97077
  },
  {
    "id": 140,
    "local": "URS Padre Eustáquio",
    "endereco": "Rua Padre Eustáquio, 1951, Padre Eustáquio - Belo Horizonte, MG, 30720-100",
    "disciplina": "CC I",
    "preceptor": "RENATA TIEMI MOREIRA DE RESENDE",
    "estudante": 4,
    "periodo_original": "SÉTIMO",
    "turma": "FAMED XXI",
    "categoria": "Médico Especialista",
    "turno": "TARDE",
    "latitude": -19.91518,
    "longitude": -43.97077
  },
  {
    "id": 141,
    "local": "URS Campos Sales",
    "endereco": "Rua Campos Sales, 472, Calafate - Belo Horizonte, MG, 30411-470",
    "disciplina": "SCA II",
    "preceptor": "MAIRA FERNANDES MADUREIRA",
    "estudante": 6,
    "periodo_original": "SÉTIMO",
    "turma": "FAMED XXI",
    "categoria": "Médico Especialista",
    "turno": "TARDE",
    "latitude": -19.92681,
    "longitude": -43.97765
  },
  {
    "id": 142,
    "local": "Centro de Saúde Tupi",
    "endereco": "Rua Jorge Amado, 91 - Tupi A, Belo Horizonte - MG, 31842-292",
    "disciplina": "SCA II",
    "preceptor": "VANESSA ALMEIDA DE CAMARGOS",
    "estudante": 6,
    "periodo_original": "SÉTIMO",
    "turma": "FAMED XXI",
    "categoria": "Médico Especialista",
    "turno": "TARDE",
    "latitude": -19.83559,
    "longitude": -43.92271
  },
  {
    "id": 143,
    "local": "Centro de Saúde Jardim Leblon",
    "endereco": "Rua Coronel Antonio Lopes Coelho, 269, Jardim Leblon. Belo Horizonte - MG, 31540-380",
    "disciplina": "SCA II",
    "preceptor": "AGHATA MARCELA ANDRADE DE AGUIAR",
    "estudante": 6,
    "periodo_original": "SÉTIMO",
    "turma": "FAMED XXI",
    "categoria": "Médico Especialista",
    "turno": "MANHÃ",
    "latitude": -19.82552,
    "longitude": -43.98752
  },
  {
    "id": 144,
    "local": "Centro de Saúde Céu Azul",
    "endereco": "Rua Radialista Romeu Barbosa, 123, Céu Azul, Belo Horizonte - MG, 31580-510",
    "disciplina": "SCA II",
    "preceptor": "GLAUCIA GATTONI MEDEIROS",
    "estudante": 5,
    "periodo_original": "SÉTIMO",
    "turma": "FAMED XXI",
    "categoria": "Médico Especialista",
    "turno": "MANHÃ",
    "latitude": -19.82623,
    "longitude": -44.00224
  },
  {
    "id": 145,
    "local": "Centro de Saúde Céu Azul",
    "endereco": "Rua Radialista Romeu Barbosa, 123, Céu Azul, Belo Horizonte - MG, 31580-510",
    "disciplina": "SCA II",
    "preceptor": "BRUNO FLAVIO RODRIGUES",
    "estudante": 6,
    "periodo_original": "SÉTIMO",
    "turma": "FAMED XXI",
    "categoria": "Médico Especialista",
    "turno": "TARDE",
    "latitude": -19.82623,
    "longitude": -44.00224
  },
  {
    "id": 146,
    "local": "URS Campos Sales",
    "endereco": "Rua Campos Sales, 472, Calafate - Belo Horizonte, MG, 30411-470",
    "disciplina": "SCA II",
    "preceptor": "KATIA ROBERTA MENDES DOS SANTOS",
    "estudante": 7,
    "periodo_original": "SÉTIMO",
    "turma": "FAMED XXI",
    "categoria": "Médico Especialista",
    "turno": "MANHÃ",
    "latitude": -19.92681,
    "longitude": -43.97765
  },
  {
    "id": 147,
    "local": "CEMAE",
    "endereco": "Rua Francisco de Assis Pereira, 191 - Centro, Sabará - MG",
    "disciplina": "SCA II",
    "preceptor": "ESTHER PEREIRA SOARES",
    "estudante": 6,
    "periodo_original": "SÉTIMO",
    "turma": "FAMED XXI",
    "categoria": "Médico Especialista",
    "turno": "TARDE",
    "latitude": -19.88833,
    "longitude": -43.80795
  },
  {
    "id": 148,
    "local": "Centro de Saúde Primeiro de Maio",
    "endereco": "Rua Oscar Lobo Pereira, 270, Primeiro de Maio, Belo Horizonte - MG, 31812-070",
    "disciplina": "SM II",
    "preceptor": "GILMARA MIKAELE CAMPOS",
    "estudante": 5,
    "periodo_original": "SÉTIMO",
    "turma": "FAMED XXI",
    "categoria": "Médico Especialista",
    "turno": "TARDE",
    "latitude": -19.85956,
    "longitude": -43.92765
  },
  {
    "id": 149,
    "local": "UBS Prefeito Glenan Conrado",
    "endereco": "Rua Cinquenta e Sete, 80, Nova Pampulha 3ª e 4ª Seção, Vespasiano - MG",
    "disciplina": "SM II",
    "preceptor": "LAISSA NASCIMENTO BERNARDES SOUZA",
    "estudante": 5,
    "periodo_original": "SÉTIMO",
    "turma": "FAMED XXI",
    "categoria": "Médico Especialista",
    "turno": "TARDE",
    "latitude": -19.76338,
    "longitude": -43.96345
  },
  {
    "id": 150,
    "local": "Centro de Saúde Padre Tiago",
    "endereco": "Avenida João XXIII, 1233 (Próximo à esquina de Avenida Tancredo Neves), Manacás, Belo Horizonte - MG, 30820-660",
    "disciplina": "SM II",
    "preceptor": "LAYSSA CAROLINE DE SOUSA CARVALHO",
    "estudante": 5,
    "periodo_original": "SÉTIMO",
    "turma": "FAMED XXI",
    "categoria": "Médico Especialista",
    "turno": "MANHÃ",
    "latitude": -19.89941,
    "longitude": -43.99408
  },
  {
    "id": 151,
    "local": "UBS Célvia I",
    "endereco": "Rua Paraná 231, Célvia, Vespasiano",
    "disciplina": "SM II",
    "preceptor": "PEDRO RAFFAEL FARIAS FERREIRA",
    "estudante": 4,
    "periodo_original": "SÉTIMO",
    "turma": "FAMED XXI",
    "categoria": "Médico Especialista",
    "turno": "MANHÃ",
    "latitude": -19.69053,
    "longitude": -43.93532
  },
  {
    "id": 152,
    "local": "Centro de Saúde Andradas",
    "endereco": "Rua Mariana Amelia de Azevedo, 21, São João Batista, Belo Horizonte - MG, 31510-470",
    "disciplina": "SM II",
    "preceptor": "CAROLINA COUTO DE AZEVEDO CYSNE",
    "estudante": 4,
    "periodo_original": "SÉTIMO",
    "turma": "FAMED XXI",
    "categoria": "Médico Especialista",
    "turno": "MANHÃ",
    "latitude": -19.81954,
    "longitude": -43.96293
  },
  {
    "id": 153,
    "local": "Centro de Saúde Jardim Comerciários",
    "endereco": "Rua Maria da Paz Maia, 168, Jardim Comerciários, Belo Horizonte - MG, 31652-160",
    "disciplina": "SM II",
    "preceptor": "LEILA FERREIRA DE PINHO",
    "estudante": 4,
    "periodo_original": "SÉTIMO",
    "turma": "FAMED XXI",
    "categoria": "Médico Especialista",
    "turno": "MANHÃ",
    "latitude": -19.78777,
    "longitude": -43.97588
  },
  {
    "id": 154,
    "local": "Centro de Saúde Primeiro de Maio",
    "endereco": "Rua Oscar Lobo Pereira, 270, Primeiro de Maio, Belo Horizonte - MG, 31812-070",
    "disciplina": "SM II",
    "preceptor": "ANA CECILIA DE LIMA SANTOS",
    "estudante": 5,
    "periodo_original": "SÉTIMO",
    "turma": "FAMED XXI",
    "categoria": "Médico Especialista",
    "turno": "MANHÃ",
    "latitude": -19.85947,
    "longitude": -43.92771
  },
  {
    "id": 155,
    "local": "Centro de Saúde Padre Tiago",
    "endereco": "Avenida João XXIII, 1233 (Próximo à esquina de Avenida Tancredo Neves), Manacás, Belo Horizonte - MG, 30820-660",
    "disciplina": "SM II",
    "preceptor": "PEDRO RAFFAEL FARIAS FERREIRA",
    "estudante": 5,
    "periodo_original": "SÉTIMO",
    "turma": "FAMED XXI",
    "categoria": "Médico Especialista",
    "turno": "TARDE",
    "latitude": -19.89941,
    "longitude": -43.99408
  },
  {
    "id": 156,
    "local": "Centro de Saúde Zilah Spósito",
    "endereco": "R. Coquilhos, 85 - Jaqueline, Belo Horizonte - MG, 31748-495",
    "disciplina": "SM II",
    "preceptor": "CAROLINA COUTO DE AZEVEDO CYSNE",
    "estudante": 5,
    "periodo_original": "SÉTIMO",
    "turma": "FAMED XXI",
    "categoria": "Médico Especialista",
    "turno": "TARDE",
    "latitude": -19.80468,
    "longitude": -43.92809
  },
  {
    "id": 157,
    "local": "UBS Roça Grande",
    "endereco": "Rua Santana 545, Roça Grande - Sabará - MG",
    "disciplina": "AS VIII",
    "preceptor": "ROMULO VASCONCELLOS RIBEIRO MATOS",
    "estudante": 7,
    "periodo_original": "OITAVO",
    "turma": "FAMED XX",
    "categoria": "Médico Generalista / MFC",
    "turno": "MANHÃ",
    "latitude": -19.89161,
    "longitude": -43.83161
  },
  {
    "id": 158,
    "local": "Centro de Saúde Jardim Felicidade",
    "endereco": " R. Sônia Braz Xavier, 321, Jardiim Felicidade Belo Horizonte - MG",
    "disciplina": "AS VIII",
    "preceptor": "VINICIUS REZENDE SILVEIRA",
    "estudante": 6,
    "periodo_original": "OITAVO",
    "turma": "FAMED XX",
    "categoria": "Médico Generalista / MFC",
    "turno": "MANHÃ",
    "latitude": -19.82235,
    "longitude": -43.93104
  },
  {
    "id": 159,
    "local": "Posto de Saúde General Carneiro",
    "endereco": "R. Rio Grande do Sul, 12, General Carneiro, Sabará, MG, CEP 34585-260",
    "disciplina": "AS VIII",
    "preceptor": "JOSÉ CARLOS DOMINGUES JUNIOR",
    "estudante": 7,
    "periodo_original": "OITAVO",
    "turma": "FAMED XX",
    "categoria": "Médico Generalista / MFC",
    "turno": "TARDE",
    "latitude": -19.88428,
    "longitude": -43.85266
  },
  {
    "id": 160,
    "local": "UBS Moradas da Serra",
    "endereco": "Av. Minas Gerais 715, Morada da Serra, Ibirité - MG, CEP 32400-000",
    "disciplina": "AS VIII",
    "preceptor": "JADER LÚCIO DA SILVEIRA XAVIER",
    "estudante": 7,
    "periodo_original": "OITAVO",
    "turma": "FAMED XX",
    "categoria": "Médico Generalista / MFC",
    "turno": "MANHÃ",
    "latitude": -20.02411,
    "longitude": -44.04106
  },
  {
    "id": 161,
    "local": "Gavea II -  UBS  Inah Vercesi dos Santos",
    "endereco": "R. Yuri Gagarin, 425 - Gávea, Vespasiano - MG, 33200-000",
    "disciplina": "AS VIII",
    "preceptor": "VALÉRIA MÁRCIA AUGUSTO NASCIMENTO RIBEIRO",
    "estudante": 7,
    "periodo_original": "OITAVO",
    "turma": "FAMED XX",
    "categoria": "Médico Generalista / MFC",
    "turno": "MANHÃ",
    "latitude": -19.75417,
    "longitude": -43.94077
  },
  {
    "id": 162,
    "local": "Centro de Saúde Lagoa",
    "endereco": "R. José Sabino Maciel, 176 - Lagoa, Belo Horizonte - MG, 31578-060",
    "disciplina": "AS VIII",
    "preceptor": "BRENO BIAGIONI SILVA PAIVA",
    "estudante": 7,
    "periodo_original": "OITAVO",
    "turma": "FAMED XX",
    "categoria": "Médico Generalista / MFC",
    "turno": "MANHÃ",
    "latitude": -19.80914,
    "longitude": -44.00106
  },
  {
    "id": 163,
    "local": "Centro de Saúde Jardim Felicidade",
    "endereco": " R. Sônia Braz Xavier, 321, Jardiim Felicidade Belo Horizonte - MG",
    "disciplina": "AS VIII",
    "preceptor": "JOELMARA IVO DA SILVA",
    "estudante": 6,
    "periodo_original": "OITAVO",
    "turma": "FAMED XX",
    "categoria": "Médico Generalista / MFC",
    "turno": "TARDE",
    "latitude": -19.82235,
    "longitude": -43.93104
  },
  {
    "id": 164,
    "local": "Centro de Saúde Alcides Lins",
    "endereco": "R. Panema, 275 - Concórdia, Belo Horizonte - MG, 31130-620",
    "disciplina": "AS VIII",
    "preceptor": "LUIZ RUGERO MARCATTO DO CARMO",
    "estudante": 6,
    "periodo_original": "OITAVO",
    "turma": "FAMED XX",
    "categoria": "Médico Generalista / MFC",
    "turno": "TARDE",
    "latitude": -19.89495,
    "longitude": -43.93752
  },
  {
    "id": 165,
    "local": "Centro de Saúde Aarão Reis",
    "endereco": "Av. Waldomiro Lobo, 177 - Aarão Reis, Belo Horizonte - MG, 31814-620",
    "disciplina": "AS VIII",
    "preceptor": "DIEGO VINÍCIUS MELO LACERDA",
    "estudante": 6,
    "periodo_original": "OITAVO",
    "turma": "FAMED XX",
    "categoria": "Médico Generalista / MFC",
    "turno": "TARDE",
    "latitude": -19.84571,
    "longitude": -43.92117
  },
  {
    "id": 166,
    "local": "Centro de Saúde Aarão Reis",
    "endereco": "Av. Waldomiro Lobo, 177 - Aarão Reis, Belo Horizonte - MG, 31814-620",
    "disciplina": "AS VIII",
    "preceptor": "WILLIE MARQUES MARTINS",
    "estudante": 6,
    "periodo_original": "OITAVO",
    "turma": "FAMED XX",
    "categoria": "Médico Generalista / MFC",
    "turno": "TARDE",
    "latitude": -19.84571,
    "longitude": -43.92117
  },
  {
    "id": 167,
    "local": "Centro de Saúde Aarão Reis",
    "endereco": "Av. Waldomiro Lobo, 177 - Aarão Reis, Belo Horizonte - MG, 31814-620",
    "disciplina": "AS VIII",
    "preceptor": "LEONARDO LACERDA DE CARVALHO",
    "estudante": 6,
    "periodo_original": "OITAVO",
    "turma": "FAMED XX",
    "categoria": "Médico Generalista / MFC",
    "turno": "TARDE",
    "latitude": -19.84571,
    "longitude": -43.92117
  },
  {
    "id": 168,
    "local": "UBS Alvorada",
    "endereco": "R. Carlos Chagas, 977 esquina com Campanha, Alvorada, Sabará - MG, 34700-170 OBS: Não ir para rua de mesmo nome no Bairro Fátima",
    "disciplina": "AS VIII",
    "preceptor": "ANDRESSA MOTA MEURER",
    "estudante": 7,
    "periodo_original": "OITAVO",
    "turma": "FAMED XX",
    "categoria": "Médico Generalista / MFC",
    "turno": "TARDE",
    "latitude": -19.87145,
    "longitude": -43.89367
  },
  {
    "id": 169,
    "local": "CEMAE",
    "endereco": "Rua Francisco de Assis Pereira, 191 - Centro, Sabará - MG",
    "disciplina": "SA IV",
    "preceptor": "JULIANA  SOFIA ESTEVES FANTINI",
    "estudante": 6,
    "periodo_original": "OITAVO",
    "turma": "FAMED XX",
    "categoria": "Médico Especialista",
    "turno": "TARDE",
    "latitude": -19.88826,
    "longitude": -43.80794
  },
  {
    "id": 170,
    "local": "CEM Leste",
    "endereco": "Rua Joaquim Felício, 101 - 8º andar, Sagrada Família, Belo Horizonte - MG, 31030-200",
    "disciplina": "SA IV",
    "preceptor": "ISABELA MATTAR SASDELLI",
    "estudante": 6,
    "periodo_original": "OITAVO",
    "turma": "FAMED XX",
    "categoria": "Médico Especialista",
    "turno": "TARDE",
    "latitude": -19.90787,
    "longitude": -43.92798
  },
  {
    "id": 171,
    "local": "SAE",
    "endereco": "Rua Francisco de Assis Pereira, 191 - Centro, Sabará - MG",
    "disciplina": "SA IV",
    "preceptor": "LEONARDO DE ASSIS FREITAS VELLOSO",
    "estudante": 6,
    "periodo_original": "OITAVO",
    "turma": "FAMED XX",
    "categoria": "Médico Especialista",
    "turno": "TARDE",
    "latitude": -19.88823,
    "longitude": -43.80793
  },
  {
    "id": 172,
    "local": "CEMAE",
    "endereco": "Rua Francisco de Assis Pereira, 191 - Centro, Sabará - MG",
    "disciplina": "SA IV",
    "preceptor": "DANIELA DE SÁ",
    "estudante": 6,
    "periodo_original": "OITAVO",
    "turma": "FAMED XX",
    "categoria": "Médico Especialista",
    "turno": "TARDE",
    "latitude": -19.88826,
    "longitude": -43.80794
  },
  {
    "id": 173,
    "local": "CEM Nordeste",
    "endereco": "Rua Joaquim Felício, 101 - 6º andar, Sagrada Família, Belo Horizonte - MG, 31030-200",
    "disciplina": "SA IV",
    "preceptor": "JOÃO PEDRO LOPES MACHADO",
    "estudante": 6,
    "periodo_original": "OITAVO",
    "turma": "FAMED XX",
    "categoria": "Médico Especialista",
    "turno": "TARDE",
    "latitude": -19.90789,
    "longitude": -43.92784
  },
  {
    "id": 174,
    "local": "SAE",
    "endereco": "Rua Francisco de Assis Pereira, 191 - Centro, Sabará - MG",
    "disciplina": "SA IV",
    "preceptor": "LEONARDO DE ASSIS FREITAS VELLOSO",
    "estudante": 6,
    "periodo_original": "OITAVO",
    "turma": "FAMED XX",
    "categoria": "Médico Especialista",
    "turno": "TARDE",
    "latitude": -19.88823,
    "longitude": -43.80793
  },
  {
    "id": 175,
    "local": "URS Sagrada Família",
    "endereco": "Rua Joaquim Felício, 101, Sagrada Família, Belo Horizonte - MG, 31030-200",
    "disciplina": "SA IV",
    "preceptor": "MARCELA ROCHA REIS",
    "estudante": 6,
    "periodo_original": "OITAVO",
    "turma": "FAMED XX",
    "categoria": "Médico Especialista",
    "turno": "TARDE",
    "latitude": -19.90798,
    "longitude": -43.92791
  },
  {
    "id": 176,
    "local": "CEM Leste",
    "endereco": "Rua Joaquim Felício, 101 - 8º andar, Sagrada Família, Belo Horizonte - MG, 31030-200",
    "disciplina": "SA IV",
    "preceptor": "ISABELA MATTAR SASDELLI",
    "estudante": 5,
    "periodo_original": "OITAVO",
    "turma": "FAMED XX",
    "categoria": "Médico Especialista",
    "turno": "TARDE",
    "latitude": -19.90787,
    "longitude": -43.92798
  },
  {
    "id": 177,
    "local": "SAE",
    "endereco": "Rua Francisco de Assis Pereira, 191 - Centro, Sabará - MG",
    "disciplina": "SA IV",
    "preceptor": "RODRIGO MEDRADO",
    "estudante": 5,
    "periodo_original": "OITAVO",
    "turma": "FAMED XX",
    "categoria": "Médico Especialista",
    "turno": "TARDE",
    "latitude": -19.88823,
    "longitude": -43.80793
  },
  {
    "id": 178,
    "local": "CEMAE",
    "endereco": "Rua Francisco de Assis Pereira, 191 - Centro, Sabará - MG",
    "disciplina": "SA IV",
    "preceptor": "DANIELA DE SÁ",
    "estudante": 6,
    "periodo_original": "OITAVO",
    "turma": "FAMED XX",
    "categoria": "Médico Especialista",
    "turno": "TARDE",
    "latitude": -19.88826,
    "longitude": -43.80794
  },
  {
    "id": 179,
    "local": "CEMAE",
    "endereco": "Rua Francisco de Assis Pereira, 191 - Centro, Sabará - MG",
    "disciplina": "SA IV",
    "preceptor": "JOÃO PEDRO LOPES MACHADO",
    "estudante": 6,
    "periodo_original": "OITAVO",
    "turma": "FAMED XX",
    "categoria": "Médico Especialista",
    "turno": "TARDE",
    "latitude": -19.88826,
    "longitude": -43.80794
  },
  {
    "id": 180,
    "local": "Centro de Saúde Fábio Correa Lima",
    "endereco": "Rua Ilha de Malta, 353 - São Gabriel, Belo Horizonte - MG, 31980-390",
    "disciplina": "SA IV",
    "preceptor": "ARISTARCO DE PINHO FERREIRA JUNIOR",
    "estudante": 6,
    "periodo_original": "OITAVO",
    "turma": "FAMED XX",
    "categoria": "Médico Especialista",
    "turno": "TARDE",
    "latitude": -19.85662,
    "longitude": -43.91413
  },
  {
    "id": 181,
    "local": "URS Sagrada Família",
    "endereco": "Rua Joaquim Felício, 101, Sagrada Família, Belo Horizonte - MG, 31030-200",
    "disciplina": "SA IV",
    "preceptor": "MARCELA ROCHA REIS",
    "estudante": 6,
    "periodo_original": "OITAVO",
    "turma": "FAMED XX",
    "categoria": "Médico Especialista",
    "turno": "TARDE",
    "latitude": -19.90798,
    "longitude": -43.92791
  },
  {
    "id": 182,
    "local": "CEMAE",
    "endereco": "Rua Francisco de Assis Pereira, 191 - Centro, Sabará - MG",
    "disciplina": "SA IV",
    "preceptor": "CAROLINA TRINDADE",
    "estudante": 6,
    "periodo_original": "OITAVO",
    "turma": "FAMED XX",
    "categoria": "Médico Especialista",
    "turno": "TARDE",
    "latitude": -19.88826,
    "longitude": -43.80794
  },
  {
    "id": 183,
    "local": "CEMAE",
    "endereco": "Rua Francisco de Assis Pereira, 191 - Centro, Sabará - MG",
    "disciplina": "SA IV",
    "preceptor": "DANIELA DE SÁ",
    "estudante": 6,
    "periodo_original": "OITAVO",
    "turma": "FAMED XX",
    "categoria": "Médico Especialista",
    "turno": "TARDE",
    "latitude": -19.88826,
    "longitude": -43.80794
  },
  {
    "id": 184,
    "local": "CEMAE",
    "endereco": "Rua Francisco de Assis Pereira, 191 - Centro, Sabará - MG",
    "disciplina": "SA IV",
    "preceptor": "CAROLINA TRINDADE",
    "estudante": 6,
    "periodo_original": "OITAVO",
    "turma": "FAMED XX",
    "categoria": "Médico Especialista",
    "turno": "TARDE",
    "latitude": -19.88826,
    "longitude": -43.80794
  },
  {
    "id": 185,
    "local": "SAE",
    "endereco": "Rua Francisco de Assis Pereira, 191 - Centro, Sabará - MG",
    "disciplina": "SA IV",
    "preceptor": "LEONARDO DE ASSIS FREITAS VELLOSO",
    "estudante": 5,
    "periodo_original": "OITAVO",
    "turma": "FAMED XX",
    "categoria": "Médico Especialista",
    "turno": "TARDE",
    "latitude": -19.88823,
    "longitude": -43.80793
  },
  {
    "id": 186,
    "local": "UPA Norte",
    "endereco": "Avenida Risoleta Neves, 2580 - Ao lado do CRAS (Centro de Referência de Assistência Socia)l, Novo Aarão Reis, Belo Horizonte - MG 31845-425",
    "disciplina": "CC II",
    "preceptor": "ANA CAROLINA MARTINS FARIA DE ABREU",
    "estudante": 34,
    "periodo_original": "OITAVO",
    "turma": "FAMED XX",
    "categoria": "Médico Especialista",
    "turno": "TARDE",
    "latitude": -19.84543,
    "longitude": -43.91429
  },
  {
    "id": 187,
    "local": "Santa Casa de Lagoa Santa",
    "endereco": "R. Caiçara, 500 - Vila Pinto Coelho, Lagoa Santa - MG, 33230-279",
    "disciplina": "CC II",
    "preceptor": "TIAGO ARAUJO ALVES",
    "estudante": 34,
    "periodo_original": "OITAVO",
    "turma": "FAMED XX",
    "categoria": "Médico Especialista",
    "turno": "TARDE",
    "latitude": -19.62521,
    "longitude": -43.90107
  },
  {
    "id": 188,
    "local": "Hospital João XXIII",
    "endereco": "Av. Prof. Alfredo Balena, 400 - Centro, Belo Horizonte - MG, 30130-100",
    "disciplina": "CC II",
    "preceptor": "RONY GERALDO PESSOA",
    "estudante": 35,
    "periodo_original": "OITAVO",
    "turma": "FAMED XX",
    "categoria": "Médico Especialista",
    "turno": "TARDE",
    "latitude": -19.92553,
    "longitude": -43.93105
  },
  {
    "id": 189,
    "local": "UPA Norte",
    "endereco": "Avenida Risoleta Neves, 2580 - Ao lado do CRAS (Centro de Referência de Assistência Socia)l, Novo Aarão Reis, Belo Horizonte - MG 31845-425",
    "disciplina": "CC II",
    "preceptor": "LUCAS FACIO REZENDE",
    "estudante": 35,
    "periodo_original": "OITAVO",
    "turma": "FAMED XX",
    "categoria": "Médico Especialista",
    "turno": "TARDE",
    "latitude": -19.84543,
    "longitude": -43.91429
  },
  {
    "id": 190,
    "local": "Hospital João XXIII",
    "endereco": "Av. Prof. Alfredo Balena, 400 - Centro, Belo Horizonte - MG, 30130-100",
    "disciplina": "CC II",
    "preceptor": "LUCAS FACIO REZENDE",
    "estudante": 33,
    "periodo_original": "OITAVO",
    "turma": "FAMED XX",
    "categoria": "Médico Especialista",
    "turno": "TARDE",
    "latitude": -19.92553,
    "longitude": -43.93105
  },
  {
    "id": 191,
    "local": "UPA Norte",
    "endereco": "Avenida Risoleta Neves, 2580 - Ao lado do CRAS (Centro de Referência de Assistência Socia)l, Novo Aarão Reis, Belo Horizonte - MG 31845-425",
    "disciplina": "CC II",
    "preceptor": "PEDRO NETTO QUEIROZ LAFETA",
    "estudante": 33,
    "periodo_original": "OITAVO",
    "turma": "FAMED XX",
    "categoria": "Médico Especialista",
    "turno": "TARDE",
    "latitude": -19.84543,
    "longitude": -43.91429
  },
  {
    "id": 192,
    "local": "Hospital João XXIII",
    "endereco": "Av. Prof. Alfredo Balena, 400 - Centro, Belo Horizonte - MG, 30130-100",
    "disciplina": "SCA III",
    "preceptor": "ANDRÉ GONÇALVES MARINHO",
    "estudante": 12,
    "periodo_original": "OITAVO",
    "turma": "FAMED XX",
    "categoria": "Médico Especialista",
    "turno": "TARDE",
    "latitude": -19.92553,
    "longitude": -43.93105
  },
  {
    "id": 193,
    "local": "Hospital João XXIII",
    "endereco": "Av. Prof. Alfredo Balena, 400 - Centro, Belo Horizonte - MG, 30130-100",
    "disciplina": "SCA III",
    "preceptor": "LARISSA DE PAIVA OLIVEIRA",
    "estudante": 12,
    "periodo_original": "OITAVO",
    "turma": "FAMED XX",
    "categoria": "Médico Especialista",
    "turno": "TARDE",
    "latitude": -19.92553,
    "longitude": -43.93105
  },
  {
    "id": 194,
    "local": "Hospital João XXIII",
    "endereco": "Av. Prof. Alfredo Balena, 400 - Centro, Belo Horizonte - MG, 30130-100",
    "disciplina": "SCA III",
    "preceptor": "LUDMILA QUEIROZ CABRAL COSTA",
    "estudante": 12,
    "periodo_original": "OITAVO",
    "turma": "FAMED XX",
    "categoria": "Médico Especialista",
    "turno": "TARDE",
    "latitude": -19.92553,
    "longitude": -43.93105
  },
  {
    "id": 195,
    "local": "UPA Norte",
    "endereco": "Avenida Risoleta Neves, 2580 - Ao lado do CRAS (Centro de Referência de Assistência Socia)l, Novo Aarão Reis, Belo Horizonte - MG 31845-425",
    "disciplina": "SCA III",
    "preceptor": "VANESSA ALMEIDA DE CAMARGOS",
    "estudante": 8,
    "periodo_original": "OITAVO",
    "turma": "FAMED XX",
    "categoria": "Médico Especialista",
    "turno": "TARDE",
    "latitude": -19.84543,
    "longitude": -43.91429
  },
  {
    "id": 196,
    "local": "UPA Norte",
    "endereco": "Avenida Risoleta Neves, 2580 - Ao lado do CRAS (Centro de Referência de Assistência Socia)l, Novo Aarão Reis, Belo Horizonte - MG 31845-425",
    "disciplina": "SCA III",
    "preceptor": "LILIAN DE ARAUJO RAMOS",
    "estudante": 4,
    "periodo_original": "OITAVO",
    "turma": "FAMED XX",
    "categoria": "Médico Especialista",
    "turno": "TARDE",
    "latitude": -19.84543,
    "longitude": -43.91429
  },
  {
    "id": 197,
    "local": "UPA Norte",
    "endereco": "Avenida Risoleta Neves, 2580 - Ao lado do CRAS (Centro de Referência de Assistência Socia)l, Novo Aarão Reis, Belo Horizonte - MG 31845-425",
    "disciplina": "SCA III",
    "preceptor": "AGHATA MARCELA ANDRADE DE AGUIAR",
    "estudante": 8,
    "periodo_original": "OITAVO",
    "turma": "FAMED XX",
    "categoria": "Médico Especialista",
    "turno": "TARDE",
    "latitude": -19.84543,
    "longitude": -43.91429
  },
  {
    "id": 198,
    "local": "UPA São Benedito",
    "endereco": "Av. Sr. do Bonfim, 1052 - São Benedito, Santa Luzia - MG, 33105-510",
    "disciplina": "SCA III",
    "preceptor": "MARIA CLARA CAJAHIBA MACHADO",
    "estudante": 4,
    "periodo_original": "OITAVO",
    "turma": "FAMED XX",
    "categoria": "Médico Especialista",
    "turno": "TARDE",
    "latitude": -19.78447,
    "longitude": -43.93271
  },
  {
    "id": 199,
    "local": "Centro de Saúde Zilah Spósito",
    "endereco": "R. Coquilhos, 85 - Jaqueline, Belo Horizonte - MG, 31748-495",
    "disciplina": "SM III",
    "preceptor": "IARA MOREIRA CASTRO",
    "estudante": 5,
    "periodo_original": "OITAVO",
    "turma": "FAMED XX",
    "categoria": "Médico Especialista",
    "turno": "TARDE",
    "latitude": -19.80454,
    "longitude": -43.92834
  },
  {
    "id": 200,
    "local": "Centro de Saúde Felicidade II",
    "endereco": "Rua Sonia Braz Xavier, 60, Jardim Felicidade, Belo Horizonte - MG, 31742-417",
    "disciplina": "SM III",
    "preceptor": "ANDRESSA DIAS CORREA",
    "estudante": 4,
    "periodo_original": "OITAVO",
    "turma": "FAMED XX",
    "categoria": "Médico Especialista",
    "turno": "TARDE",
    "latitude": -19.82495,
    "longitude": -43.93071
  },
  {
    "id": 201,
    "local": "Centro de Saúde Fábio Correa Lima",
    "endereco": "Rua Ilha de Malta, 353 - São Gabriel, Belo Horizonte - MG, 31980-390",
    "disciplina": "SM III",
    "preceptor": "LEILA FERREIRA DE PINHO",
    "estudante": 4,
    "periodo_original": "OITAVO",
    "turma": "FAMED XX",
    "categoria": "Médico Especialista",
    "turno": "TARDE",
    "latitude": -19.85653,
    "longitude": -43.91414
  },
  {
    "id": 202,
    "local": "Centro de Saúde Boa Vista",
    "endereco": "Rua Gurua, 833, Boa Vista, Belo Horizonte - MG, 31060-560",
    "disciplina": "SM III",
    "preceptor": "LUCAS RICARDO ANDRADE",
    "estudante": 4,
    "periodo_original": "OITAVO",
    "turma": "FAMED XX",
    "categoria": "Médico Especialista",
    "turno": "TARDE",
    "latitude": -19.89191,
    "longitude": -43.89718
  },
  {
    "id": 203,
    "local": "UBS Otília Levinda Costa Matos - (UBS Vida Nova)",
    "endereco": "Rua dos Cardeais. S/N, Vida Nova - Vespasiano - MG",
    "disciplina": "SM III",
    "preceptor": "ANA CECILIA DE LIMA SANTOS",
    "estudante": 5,
    "periodo_original": "OITAVO",
    "turma": "FAMED XX",
    "categoria": "Médico Especialista",
    "turno": "TARDE",
    "latitude": -19.76102,
    "longitude": -43.98775
  },
  {
    "id": 204,
    "local": "Centro de Saúde Zilah Spósito",
    "endereco": "R. Coquilhos, 85 - Jaqueline, Belo Horizonte - MG, 31748-495",
    "disciplina": "SM III",
    "preceptor": "ANA CECILIA DE LIMA SANTOS",
    "estudante": 5,
    "periodo_original": "OITAVO",
    "turma": "FAMED XX",
    "categoria": "Médico Especialista",
    "turno": "TARDE",
    "latitude": -19.80454,
    "longitude": -43.92834
  },
  {
    "id": 205,
    "local": "Centro de Saúde Padre Tiago",
    "endereco": "Avenida João XXIII, 1233 (Próximo à esquina de Avenida Tancredo Neves), Manacás, Belo Horizonte - MG, 30820-660",
    "disciplina": "SM III",
    "preceptor": "LUCAS RICARDO ANDRADE",
    "estudante": 5,
    "periodo_original": "OITAVO",
    "turma": "FAMED XX",
    "categoria": "Médico Especialista",
    "turno": "TARDE",
    "latitude": -19.90064,
    "longitude": -43.99378
  },
  {
    "id": 206,
    "local": "Centro de Saúde Boa Vista",
    "endereco": "Rua Gurua, 833, Boa Vista, Belo Horizonte - MG, 31060-560",
    "disciplina": "SM III",
    "preceptor": "IARA MOREIRA CASTRO",
    "estudante": 4,
    "periodo_original": "OITAVO",
    "turma": "FAMED XX",
    "categoria": "Médico Especialista",
    "turno": "TARDE",
    "latitude": -19.89191,
    "longitude": -43.89718
  },
  {
    "id": 207,
    "local": "UBS Célvia I",
    "endereco": "Rua Paraná 231, Célvia, Vespasiano",
    "disciplina": "SM III",
    "preceptor": "LAISSA NASCIMENTO BERNARDES SOUZA",
    "estudante": 4,
    "periodo_original": "OITAVO",
    "turma": "FAMED XX",
    "categoria": "Médico Especialista",
    "turno": "TARDE",
    "latitude": -19.69054,
    "longitude": -43.93539
  },
  {
    "id": 208,
    "local": "UBS Célvia I",
    "endereco": "Rua Paraná 231, Célvia, Vespasiano",
    "disciplina": "SM III",
    "preceptor": "LAISSA NASCIMENTO BERNARDES SOUZA",
    "estudante": 4,
    "periodo_original": "OITAVO",
    "turma": "FAMED XX",
    "categoria": "Médico Especialista",
    "turno": "TARDE",
    "latitude": -19.69054,
    "longitude": -43.93539
  },
  {
    "id": 209,
    "local": "Centro de Saúde Padre Joaquim Maia",
    "endereco": "Rua Boaventura, 1900, Vila Rica, Belo Horizonte - MG, 31270-310",
    "disciplina": "SM III",
    "preceptor": "IARA MOREIRA CASTRO",
    "estudante": 4,
    "periodo_original": "OITAVO",
    "turma": "FAMED XX",
    "categoria": "Médico Especialista",
    "turno": "TARDE",
    "latitude": -19.85548,
    "longitude": -43.95469
  },
  {
    "id": 210,
    "local": "Centro de Saúde Boa Vista",
    "endereco": "Rua Gurua, 833, Boa Vista, Belo Horizonte - MG, 31060-560",
    "disciplina": "SM III",
    "preceptor": "LÍVIA LOPES NOGUEIRA",
    "estudante": 4,
    "periodo_original": "OITAVO",
    "turma": "FAMED XX",
    "categoria": "Médico Especialista",
    "turno": "TARDE",
    "latitude": -19.89191,
    "longitude": -43.89718
  },
  {
    "id": 211,
    "local": "Fundação Hospitalar Benjamin Guimarães - Hospital da Baleia",
    "endereco": "Rua Juramento, 1464, Saudade, Belo Horizonte - MG, 30285-000",
    "disciplina": "ICLC",
    "preceptor": "ESCALA",
    "estudante": 16,
    "periodo_original": "NONO",
    "turma": "FAMED XIX",
    "categoria": "Médico Especialista",
    "turno": "ESCALA",
    "latitude": -19.92233,
    "longitude": -43.89828
  },
  {
    "id": 212,
    "local": "Grupo HAP Vida - Hospital Life Center",
    "endereco": "Av. do Contorno, 4747, Serra, Belo Horizonte - MG, 30110-921",
    "disciplina": "ICLC",
    "preceptor": "ESCALA",
    "estudante": 10,
    "periodo_original": "NONO",
    "turma": "FAMED XIX",
    "categoria": "Médico Especialista",
    "turno": "ESCALA",
    "latitude": -19.93501,
    "longitude": -43.92451
  },
  {
    "id": 213,
    "local": "Grupo HAP Vida - Hospital Vera Cruz",
    "endereco": "Av. Barbacena, 653 - Barro Preto, Belo Horizonte - MG, 30190-130",
    "disciplina": "ICLC",
    "preceptor": "ESCALA",
    "estudante": 10,
    "periodo_original": "NONO",
    "turma": "FAMED XIX",
    "categoria": "Médico Especialista",
    "turno": "ESCALA",
    "latitude": -19.92366,
    "longitude": -43.95277
  },
  {
    "id": 214,
    "local": "Hospital e Maternidade Santa Rita",
    "endereco": "Av. Tito Fulgêncio, 1045 - Jardim Industrial, Contagem - MG, 32215-000",
    "disciplina": "ICLC",
    "preceptor": "ESCALA",
    "estudante": 26,
    "periodo_original": "NONO",
    "turma": "FAMED XIX",
    "categoria": "Médico Especialista",
    "turno": "ESCALA",
    "latitude": -19.96579,
    "longitude": -44.01492
  },
  {
    "id": 215,
    "local": "Santa Casa de Misericórdia de Belo Horizonte",
    "endereco": "Avenida Francisco Sales, 1111, Santa Efigênia, Belo Horizonte - MG",
    "disciplina": "ICLC",
    "preceptor": "ESCALA",
    "estudante": 32,
    "periodo_original": "NONO",
    "turma": "FAMED XIX",
    "categoria": "Médico Especialista",
    "turno": "ESCALA",
    "latitude": -19.92472,
    "longitude": -43.92569
  },
  {
    "id": 216,
    "local": "Grupo HAP Vida - Hospital Life Center",
    "endereco": "Av. do Contorno, 4747, Serra, Belo Horizonte - MG, 30110-921",
    "disciplina": "ICLM",
    "preceptor": "ESCALA",
    "estudante": 18,
    "periodo_original": "NONO",
    "turma": "FAMED XIX",
    "categoria": "Médico Especialista",
    "turno": "ESCALA",
    "latitude": -19.93499,
    "longitude": -43.92452
  },
  {
    "id": 217,
    "local": "Associação Mário Penna - Hospital Luxemburgo",
    "endereco": "Rua Joaquim Cândido Filho, 91, Luxemburgo, Belo Horizonte - MG, 30380-420",
    "disciplina": "ICLM",
    "preceptor": "ESCALA",
    "estudante": 20,
    "periodo_original": "NONO",
    "turma": "FAMED XIX",
    "categoria": "Médico Especialista",
    "turno": "ESCALA",
    "latitude": -19.95006,
    "longitude": -43.95874
  },
  {
    "id": 218,
    "local": "Santa Casa de Misericórdia de Belo Horizonte",
    "endereco": "Avenida Francisco Sales, 1111, Santa Efigênia, Belo Horizonte - MG",
    "disciplina": "ICLM",
    "preceptor": "ESCALA",
    "estudante": 30,
    "periodo_original": "NONO",
    "turma": "FAMED XIX",
    "categoria": "Médico Especialista",
    "turno": "ESCALA",
    "latitude": -19.92479,
    "longitude": -43.92566
  },
  {
    "id": 219,
    "local": "Grupo HAP Vida - Hospital e Maternidade Octaviano Neves",
    "endereco": "R. Ceará, 186 - Santa Efigênia, Belo Horizonte - MG, 30150-310",
    "disciplina": "ISCA",
    "preceptor": "DANIELA",
    "estudante": 40,
    "periodo_original": "DÉCIMO",
    "turma": "FAMEDXVIII",
    "categoria": "Médico Especialista",
    "turno": "ESCALA",
    "latitude": -19.92258,
    "longitude": -43.92615
  },
  {
    "id": 220,
    "local": "Fundação Hospitalar Benjamin Guimarães - Hospital da Baleia",
    "endereco": "Rua Juramento, 1464, Saudade, Belo Horizonte - MG, 30285-000",
    "disciplina": "ISCA",
    "preceptor": "MÁRCIO",
    "estudante": 39,
    "periodo_original": "DÉCIMO",
    "turma": "FAMEDXVIII",
    "categoria": "Médico Especialista",
    "turno": "ESCALA",
    "latitude": -19.92235,
    "longitude": -43.89826
  },
  {
    "id": 221,
    "local": "Hospital Municipal São Judas Tadeu",
    "endereco": "R. Waldemar José Alves, 65 - Status, Ribeirão das Neves - MG, 33880-190",
    "disciplina": "ISCA",
    "preceptor": "ANA VILARIM",
    "estudante": 39,
    "periodo_original": "DÉCIMO",
    "turma": "FAMEDXVIII",
    "categoria": "Médico Especialista",
    "turno": "ESCALA",
    "latitude": -19.77898,
    "longitude": -44.07938
  },
  {
    "id": 222,
    "local": "Santa Casa de Misericórdia de Belo Horizonte",
    "endereco": "Avenida Francisco Sales, 1111, Santa Efigênia, Belo Horizonte - MG",
    "disciplina": "ISM",
    "preceptor": "FRANCISCO LÍRIO RAMOS E ESCALA",
    "estudante": 116,
    "periodo_original": "DÉCIMO",
    "turma": "FAMEDXVIII",
    "categoria": "Médico Especialista",
    "turno": "ESCALA",
    "latitude": -19.92365,
    "longitude": -43.92529
  },
  {
    "id": 223,
    "local": "UPA Norte",
    "endereco": "Avenida Risoleta Neves, 2580 - Ao lado do CRAS (Centro de Referência de Assistência Socia)l, Novo Aarão Reis, Belo Horizonte - MG 31845-425",
    "disciplina": "IUE",
    "preceptor": "WAGNER, RODOLFO, GUSTAVO, CAROLINA",
    "estudante": 20,
    "periodo_original": "DÉCIMO PRIMEIRO",
    "turma": "FAMEDXVII",
    "categoria": "Médico Especialista",
    "turno": "MANHÃ, TARDE, NOITE",
    "latitude": -19.84541,
    "longitude": -43.91416
  },
  {
    "id": 224,
    "local": "UPA São Benedito",
    "endereco": "Av. Sr. do Bonfim, 1052 - São Benedito, Santa Luzia - MG, 33105-510",
    "disciplina": "IUE",
    "preceptor": "GUILHERME, WALLANS, ANA CRISTINA",
    "estudante": 16,
    "periodo_original": "DÉCIMO PRIMEIRO",
    "turma": "FAMEDXVII",
    "categoria": "Médico Especialista",
    "turno": "MANHÃ, TARDE, NOITE",
    "latitude": -19.78445,
    "longitude": -43.93279
  },
  {
    "id": 225,
    "local": "Santa Casa de Lagoa Santa",
    "endereco": "R. Caiçara, 500 - Vila Pinto Coelho, Lagoa Santa - MG, 33230-279",
    "disciplina": "IUE",
    "preceptor": "TIAGO ARAUJO ALVES, DANIEL, ROBSON, MARIANA",
    "estudante": 27,
    "periodo_original": "DÉCIMO PRIMEIRO",
    "turma": "FAMEDXVII",
    "categoria": "Médico Especialista",
    "turno": "MANHÃ, TARDE, NOITE",
    "latitude": -19.62531,
    "longitude": -43.90101
  },
  {
    "id": 226,
    "local": "UPA Sabará - Padre Lázaro",
    "endereco": "MG-262, 7000 - Nações Unidas, Sabará - MG",
    "disciplina": "IUE",
    "preceptor": "EMERSON, ESTER",
    "estudante": 36,
    "periodo_original": "DÉCIMO PRIMEIRO",
    "turma": "FAMEDXVII",
    "categoria": "Médico Especialista",
    "turno": "MANHÃ, TARDE, NOITE",
    "latitude": -19.87682,
    "longitude": -43.86934
  },
  {
    "id": 227,
    "local": "Instituto Assistencial Espírita André Luiz",
    "endereco": "R. Úrsula Paulino, 7 - Salgado Filho, Belo Horizonte - MG, 30570-000",
    "disciplina": "ISMEN",
    "preceptor": "FRANCISCO",
    "estudante": 24,
    "periodo_original": "DÉCIMO PRIMEIRO",
    "turma": "FAMEDXVII",
    "categoria": "Médico Especialista",
    "turno": "MANHÃ",
    "latitude": -19.95017,
    "longitude": -43.98082
  },
  {
    "id": 228,
    "local": "Instituto Assistencial Espírita André Luiz",
    "endereco": "R. Úrsula Paulino, 7 - Salgado Filho, Belo Horizonte - MG, 30570-000",
    "disciplina": "ISMEN",
    "preceptor": "THIAGO MATOZINHOS",
    "estudante": 24,
    "periodo_original": "DÉCIMO PRIMEIRO",
    "turma": "FAMEDXVII",
    "categoria": "Médico Especialista",
    "turno": "TARDE",
    "latitude": -19.95017,
    "longitude": -43.98082
  },
  {
    "id": 229,
    "local": "USF Centro",
    "endereco": "R. Mal. Deodoro da Fonseca, 410 - Centro - Lagoa Santa- MG",
    "disciplina": "ISMEN",
    "preceptor": "CARLOS",
    "estudante": 24,
    "periodo_original": "DÉCIMO PRIMEIRO",
    "turma": "FAMEDXVII",
    "categoria": "Médico Especialista",
    "turno": "TARDE",
    "latitude": -19.63018,
    "longitude": -43.89559
  },
  {
    "id": 230,
    "local": "CERSMADPNO - Centro de Referência em Saúde Mental, Álcool e outras Drogas Pampulha / Noroeste",
    "endereco": "Avenida João XXIII, 1253, Manacás, Belo Horizonte, 30820660",
    "disciplina": "ISMEN",
    "preceptor": "VITOR",
    "estudante": 24,
    "periodo_original": "DÉCIMO PRIMEIRO",
    "turma": "FAMEDXVII",
    "categoria": "Médico Especialista",
    "turno": "MANHÃ",
    "latitude": -19.90059,
    "longitude": -43.99318
  },
  {
    "id": 231,
    "local": "Policlínica Nova Pampulha",
    "endereco": "R. Divino Marques Guimarães, 321 - Nova Pampulha, Vespasiano - MG, 33200-000",
    "disciplina": "ISMEN",
    "preceptor": "GUILHERME SIQUEIRA",
    "estudante": 24,
    "periodo_original": "DÉCIMO PRIMEIRO",
    "turma": "FAMEDXVII",
    "categoria": "Médico Especialista",
    "turno": "TARDE",
    "latitude": -19.78142,
    "longitude": -43.97226
  },
  {
    "id": 232,
    "local": "Policlínica Nova Pampulha",
    "endereco": "R. Divino Marques Guimarães, 321 - Nova Pampulha, Vespasiano - MG, 33200-000",
    "disciplina": "ISMEN",
    "preceptor": "GUILHERME SIQUEIRA",
    "estudante": 24,
    "periodo_original": "DÉCIMO PRIMEIRO",
    "turma": "FAMEDXVII",
    "categoria": "Médico Especialista",
    "turno": "TARDE",
    "latitude": -19.78142,
    "longitude": -43.97226
  },
  {
    "id": 233,
    "local": "USF Centro",
    "endereco": "R. Mal. Deodoro da Fonseca, 410 - Centro - Lagoa Santa- MG",
    "disciplina": "ISMEN",
    "preceptor": "CARLOS",
    "estudante": 24,
    "periodo_original": "DÉCIMO PRIMEIRO",
    "turma": "FAMEDXVII",
    "categoria": "Médico Especialista",
    "turno": "TARDE",
    "latitude": -19.63018,
    "longitude": -43.89559
  },
  {
    "id": 234,
    "local": "Instituto Assistencial Espírita André Luiz",
    "endereco": "R. Úrsula Paulino, 7 - Salgado Filho, Belo Horizonte - MG, 30570-000",
    "disciplina": "ISMEN",
    "preceptor": "LARA ALVES PAIVA",
    "estudante": 20,
    "periodo_original": "DÉCIMO PRIMEIRO",
    "turma": "FAMEDXVII",
    "categoria": "Médico Especialista",
    "turno": "MANHÃ",
    "latitude": -19.95017,
    "longitude": -43.98082
  },
  {
    "id": 235,
    "local": "Instituto Assistencial Espírita André Luiz",
    "endereco": "R. Úrsula Paulino, 7 - Salgado Filho, Belo Horizonte - MG, 30570-000",
    "disciplina": "ISMEN",
    "preceptor": "VICENTE",
    "estudante": 24,
    "periodo_original": "DÉCIMO PRIMEIRO",
    "turma": "FAMEDXVII",
    "categoria": "Médico Especialista",
    "turno": "TARDE",
    "latitude": -19.95017,
    "longitude": -43.98082
  },
  {
    "id": 236,
    "local": "CERSMADPNO - Centro de Referência em Saúde Mental, Álcool e outras Drogas Pampulha / Noroeste",
    "endereco": "Avenida João XXIII, 1253, Manacás, Belo Horizonte, 30820660",
    "disciplina": "ISMEN",
    "preceptor": "WILLIAM PEREIRA ALVES",
    "estudante": 24,
    "periodo_original": "DÉCIMO PRIMEIRO",
    "turma": "FAMEDXVII",
    "categoria": "Médico Especialista",
    "turno": "TARDE",
    "latitude": -19.90059,
    "longitude": -43.99318
  },
  {
    "id": 237,
    "local": "Instituto Assistencial Espírita André Luiz",
    "endereco": "R. Úrsula Paulino, 7 - Salgado Filho, Belo Horizonte - MG, 30570-000",
    "disciplina": "ISMEN",
    "preceptor": "PEDRO",
    "estudante": 20,
    "periodo_original": "DÉCIMO PRIMEIRO",
    "turma": "FAMEDXVII",
    "categoria": "Médico Especialista",
    "turno": "MANHÃ",
    "latitude": -19.95017,
    "longitude": -43.98082
  },